Name;Typ;Stadt;Land;Längengrad;Breitengrad;Quelle;Operator;Details
Trier, Petrisberg;Bushaltestelle;Trier;Deutschland;6.6601434;49.750007;OpenStreetMap;Stadt Trier;network: VRT
Trier, Amphitheater;Bushaltestelle;Trier;Deutschland;6.6488063;49.7468425;OpenStreetMap;Stadt Trier;network: VRT
Kürenz (Trier), Kolonnenweg;Bushaltestelle;Trier;Deutschland;6.6720784;49.7611172;OpenStreetMap;Stadt Trier;network: VRT
Kürenz (Trier), Avelerhof;Bushaltestelle;Trier;Deutschland;6.6797062;49.7589015;OpenStreetMap;Stadt Trier;network: VRT
Olewig (Trier), Kleeburger Weg;Bushaltestelle;Trier;Deutschland;6.672064;49.7410621;OpenStreetMap;Stadt Trier;network: VRT
Trier, Am Keltenweg Süd;Bushaltestelle;Trier;Deutschland;6.6628728;49.7644797;OpenStreetMap;;
Olewig (Trier), Hunsrückstraße;Bushaltestelle;Trier;Deutschland;6.6696419;49.7416741;OpenStreetMap;Stadt Trier;network: VRT
Kernscheid (Trier), Höhenweg 2;Bushaltestelle;Trier;Deutschland;6.6736591;49.7361956;OpenStreetMap;;
Trier Hbf;Bushaltestelle;Trier;Deutschland;6.6511444;49.7557719;OpenStreetMap;;ref: 11
Trier-Nord, Nells Park;Bushaltestelle;Trier;Deutschland;6.6670897;49.7716949;OpenStreetMap;Stadt Trier;network: VRT
Trier, Zurlaubener Ufer;Bushaltestelle;Trier;Deutschland;6.6335201;49.7631562;OpenStreetMap;Stadt Trier;network: VRT
Kürenz (Trier), Nellstraße;Bushaltestelle;Trier;Deutschland;6.6612696;49.7605418;OpenStreetMap;Stadt Trier;network: VRT
Trier, Balduinsbrunnen/Hauptbahnhof;Bushaltestelle;Trier;Deutschland;6.6494088;49.7574669;OpenStreetMap;Stadt Trier;"wheelchair: yes; network: VRT"
Trier, Treviris;Bushaltestelle;Trier;Deutschland;6.6407201;49.7582541;OpenStreetMap;Stadt Trier;
Trier, Südallee/Kaiserstraße;Bushaltestelle;Trier;Deutschland;6.6359191;49.7499515;OpenStreetMap;Stadt Trier;network: VRT
Trier, Kürenzer Straße;Bushaltestelle;Trier;Deutschland;6.6556047;49.76075;OpenStreetMap;;
Trier, Kürenzer Straße;Bushaltestelle;Trier;Deutschland;6.6559146;49.7608226;OpenStreetMap;;
Trier, Theodor-Heuss-Allee;Bushaltestelle;Trier;Deutschland;6.6462967;49.7592727;OpenStreetMap;Stadt Trier;"wheelchair: yes; network: VRT"
Trier, Porta Nigra;Bushaltestelle;Trier;Deutschland;6.644389;49.7594208;OpenStreetMap;;wheelchair: yes
Trier, Franz-Georg-Straße;Bushaltestelle;Trier;Deutschland;6.6562391;49.7632177;OpenStreetMap;;wheelchair: yes
Kürenz (Trier), Am Wissenschaftspark;Bushaltestelle;Trier;Deutschland;6.6677732;49.7559232;OpenStreetMap;;
Kürenz (Trier), Behringstraße;Bushaltestelle;Trier;Deutschland;6.6770544;49.750677;OpenStreetMap;Stadt Trier;"wheelchair: yes; network: VRT"
Kürenz (Trier), Im Avelertal;Bushaltestelle;Trier;Deutschland;6.6741212;49.7598635;OpenStreetMap;;
Kürenz (Trier), Arnoldistraße;Bushaltestelle;Trier;Deutschland;6.6641931;49.7618011;OpenStreetMap;;wheelchair: limited
Pallien (Trier), Sankt Urban;Bushaltestelle;Trier;Deutschland;6.6382836;49.7698754;OpenStreetMap;;
Heiligkreuz (Trier), Am Kiewelsberg;Bushaltestelle;Trier;Deutschland;6.6399983;49.740141;OpenStreetMap;;
Heiligkreuz (Trier), Im Hopfengarten;Bushaltestelle;Trier;Deutschland;6.6410269;49.7436275;OpenStreetMap;Stadt Trier;network: VRT
Heiligkreuz (Trier), Wisportstraße;Bushaltestelle;Trier;Deutschland;6.6412222;49.7430252;OpenStreetMap;Stadt Trier;network: VRT
Heiligkreuz (Trier), Bernhardstraße;Bushaltestelle;Trier;Deutschland;6.6429173;49.7453355;OpenStreetMap;;
Heiligkreuz (Trier), Am Kiewelsberg;Bushaltestelle;Trier;Deutschland;6.6399392;49.7401581;OpenStreetMap;;
Trier, Gambrinusstraße;Bushaltestelle;Trier;Deutschland;6.6391253;49.7438833;OpenStreetMap;Stadt Trier;network: VRT
Trier, Gambrinusstraße;Bushaltestelle;Trier;Deutschland;6.637852;49.7441445;OpenStreetMap;Stadt Trier;network: VRT
Weismark (Trier), Am Bildstock;Bushaltestelle;Trier;Deutschland;6.6395028;49.7300591;OpenStreetMap;Stadt Trier;network: VRT
Heiligkreuz (Trier), Franz-Buß-Straße;Bushaltestelle;Trier;Deutschland;6.6437455;49.7375851;OpenStreetMap;;
Heiligkreuz (Trier), Ludwig-Simon-Straße;Bushaltestelle;Trier;Deutschland;6.6458297;49.7377726;OpenStreetMap;;network: VRT
Heiligkreuz (Trier), An der Ziegelei;Bushaltestelle;Trier;Deutschland;6.6459202;49.7394948;OpenStreetMap;;
Heiligkreuz (Trier), Straßburger Allee;Bushaltestelle;Trier;Deutschland;6.64364;49.7410691;OpenStreetMap;;network: VRT
Heiligkreuz (Trier), An der Ziegelei;Bushaltestelle;Trier;Deutschland;6.6463399;49.7393314;OpenStreetMap;Stadt Trier;network: VRT
Weismark (Trier), Pfahlweiher;Bushaltestelle;Trier;Deutschland;6.6377317;49.7261897;OpenStreetMap;;network: VRT
Heiligkreuz (Trier), Trevererstraße;Bushaltestelle;Trier;Deutschland;6.6478525;49.7339217;OpenStreetMap;;"wheelchair: yes; network: VRT"
Heiligkreuz (Trier), Werdingstraße;Bushaltestelle;Trier;Deutschland;6.6487304;49.7361565;OpenStreetMap;;
Mariahof (Trier), Wolfsberg;Bushaltestelle;Trier;Deutschland;6.652931;49.7292331;OpenStreetMap;;wheelchair: yes
Heiligkreuz (Trier), Hans-Böckler-Allee;Bushaltestelle;Trier;Deutschland;6.6455624;49.7416124;OpenStreetMap;;
Heiligkreuz (Trier), Am Herrenbrüchen;Bushaltestelle;Trier;Deutschland;6.6449991;49.7432308;OpenStreetMap;;
Heiligkreuz (Trier), Hans-Böckler-Allee;Bushaltestelle;Trier;Deutschland;6.6454693;49.7414877;OpenStreetMap;;
Heiligkreuz (Trier), Peter-Wust-Straße;Bushaltestelle;Trier;Deutschland;6.6490497;49.7394844;OpenStreetMap;;
Weismark (Trier), Joseph-Haydn-Straße;Bushaltestelle;Trier;Deutschland;6.6382462;49.7348047;OpenStreetMap;Stadt Trier;network: VRT
Feyen (Trier), Clara-Viebig-Straße;Bushaltestelle;Trier;Deutschland;6.6318233;49.7275373;OpenStreetMap;Stadt Trier;network: VRT
Weismark (Trier), Cusanusstraße;Bushaltestelle;Trier;Deutschland;6.6389753;49.7320225;OpenStreetMap;Stadt Trier;network: VRT
Feyen (Trier), Auf dem Kirchspiel;Bushaltestelle;Trier;Deutschland;6.6277305;49.7272742;OpenStreetMap;;
Feyen (Trier), Pellinger Straße;Bushaltestelle;Trier;Deutschland;6.631269;49.7255556;OpenStreetMap;;
Feyen (Trier), Fritz-Quant-Straße;Bushaltestelle;Trier;Deutschland;6.6284723;49.7238002;OpenStreetMap;Stadt Trier;network: VRT
Feyen (Trier), Zum Römersprudel;Bushaltestelle;Trier;Deutschland;6.6217873;49.7205233;OpenStreetMap;Stadt Trier;network: VRT
Feyen (Trier), Grafschaft;Bushaltestelle;Trier;Deutschland;6.6269814;49.7201437;OpenStreetMap;Stadt Trier;"wheelchair: limited; network: VRT"
Irsch (Trier), Irscher Hof;Bushaltestelle;Trier;Deutschland;6.6797984;49.7341204;OpenStreetMap;Stadt Trier;network: VRT
Mariahof (Trier), Wolkerstraße;Bushaltestelle;Trier;Deutschland;6.6580889;49.7284949;OpenStreetMap;;wheelchair: yes
Olewig (Trier), Caspar-Olevian-Straße;Bushaltestelle;Trier;Deutschland;6.6653296;49.7400575;OpenStreetMap;Stadt Trier;network: VRT
Trier, Wasserweg;Bushaltestelle;Trier;Deutschland;6.6537864;49.765137;OpenStreetMap;;wheelchair: yes
Trier, Wasserweg;Bushaltestelle;Trier;Deutschland;6.6535945;49.7651811;OpenStreetMap;;wheelchair: yes
Trier, Zurlaubener Ufer;Bushaltestelle;Trier;Deutschland;6.6342197;49.7637712;OpenStreetMap;;
Feyen (Trier), Adastraße;Bushaltestelle;Trier;Deutschland;6.6234024;49.722699;OpenStreetMap;Stadt Trier;network: VRT
Olewig (Trier), Tiergarten;Bushaltestelle;Trier;Deutschland;6.6550549;49.7434625;OpenStreetMap;;
Olewig (Trier), Retzgrubenweg;Bushaltestelle;Trier;Deutschland;6.6611819;49.7440657;OpenStreetMap;;
Trier, Nikolaus-Koch-Platz;Bushaltestelle;Trier;Deutschland;6.6378328;49.7571291;OpenStreetMap;;wheelchair: yes
Trier, St.-Mergener-Straße;Bushaltestelle;Trier;Deutschland;6.6409918;49.765224;OpenStreetMap;;
Trier, Remigiusstraße;Bushaltestelle;Trier;Deutschland;6.6387908;49.7640202;OpenStreetMap;;wheelchair: limited
Trier, Remigiusstraße;Bushaltestelle;Trier;Deutschland;6.638799;49.7639623;OpenStreetMap;Stadt Trier;network: VRT
Heiligkreuz (Trier), Bernhardstraße;Bushaltestelle;Trier;Deutschland;6.6438285;49.7456429;OpenStreetMap;;
Trier, Schützenstraße;Bushaltestelle;Trier;Deutschland;6.6500256;49.7499274;OpenStreetMap;Stadt Trier;network: VRT
Trier, Helenenstraße;Bushaltestelle;Trier;Deutschland;6.6494738;49.7530093;OpenStreetMap;Stadt Trier;network: VRT
Trier, Messepark P+R;Bushaltestelle;Trier;Deutschland;6.6227036;49.7390851;OpenStreetMap;;
Kürenz (Trier), Am Wasserturm;Bushaltestelle;Trier;Deutschland;6.6638445;49.7522696;OpenStreetMap;Stadt Trier;network: VRT
Olewig (Trier), Brettenbach;Bushaltestelle;Trier;Deutschland;6.6671134;49.7437202;OpenStreetMap;;
Kürenz (Trier), Schönbornstraße;Bushaltestelle;Trier;Deutschland;6.6588051;49.7592726;OpenStreetMap;Stadt Trier;network: VRT
Kürenz (Trier), Schönbornstraße;Bushaltestelle;Trier;Deutschland;6.6581821;49.7594302;OpenStreetMap;Stadt Trier;network: VRT
Kürenz (Trier), Nellstraße;Bushaltestelle;Trier;Deutschland;6.6608969;49.7603715;OpenStreetMap;Stadt Trier;network: VRT
Kürenz (Trier), Domänenstraße;Bushaltestelle;Trier;Deutschland;6.6666678;49.7631863;OpenStreetMap;;
Kürenz (Trier), Alberoweg;Bushaltestelle;Trier;Deutschland;6.6633527;49.7632483;OpenStreetMap;Stadt Trier;network: VRT
Kürenz (Trier), Kolonnenweg;Bushaltestelle;Trier;Deutschland;6.6709962;49.761676;OpenStreetMap;Stadt Trier;network: VRT
Trier, Kurfürstenstraße;Bushaltestelle;Trier;Deutschland;6.6528308;49.7520429;OpenStreetMap;Stadt Trier;network: VRT
Kernscheid (Trier), Höhenweg 1;Bushaltestelle;Trier;Deutschland;6.6696929;49.7388934;OpenStreetMap;Stadt Trier;network: VRT
Olewig (Trier), Auf der Hill;Bushaltestelle;Trier;Deutschland;6.6641378;49.7411334;OpenStreetMap;Stadt Trier;network: VRT
Kürenz (Trier), Avelerhof;Bushaltestelle;Trier;Deutschland;6.6795695;49.758957;OpenStreetMap;Stadt Trier;network: VRT
Kürenz (Trier), Martin-Schunck-Straße;Bushaltestelle;Trier;Deutschland;6.6741431;49.7541422;OpenStreetMap;Stadt Trier;"wheelchair: yes; network: VRT"
Kürenz (Trier), Kuno-Stapel-Straße;Bushaltestelle;Trier;Deutschland;6.6730569;49.7547316;OpenStreetMap;Stadt Trier;"wheelchair: yes; network: VRT"
Trier, Thyrsusstraße;Bushaltestelle;Trier;Deutschland;6.6638941;49.7673373;OpenStreetMap;Stadt Trier;network: VRT
Trier, An der Feldport;Bushaltestelle;Trier;Deutschland;6.6580602;49.7681127;OpenStreetMap;;wheelchair: yes
Trier, An der Feldport;Bushaltestelle;Trier;Deutschland;6.6573983;49.7678736;OpenStreetMap;;wheelchair: yes
Trier, Hochwaldstraße;Bushaltestelle;Trier;Deutschland;6.6614083;49.7697039;OpenStreetMap;;
Trier, Hochwaldstraße;Bushaltestelle;Trier;Deutschland;6.6607525;49.7695238;OpenStreetMap;;
Trier, SWT-Arena;Bushaltestelle;Trier;Deutschland;6.6642385;49.7710645;OpenStreetMap;;
Trier, Südallee/Kaiserstraße;Bushaltestelle;Trier;Deutschland;6.6347581;49.750324;OpenStreetMap;Stadt Trier;"wheelchair: yes; network: VRT"
Pallien (Trier), Hochschule Trier;Bushaltestelle;Trier;Deutschland;6.6263801;49.7676259;OpenStreetMap;Stadt Trier;network: VRT
Weismark (Trier), Altenheim Härenwies;Bushaltestelle;Trier;Deutschland;6.6437008;49.7274553;OpenStreetMap;;
Trier, St. Matthias;Bushaltestelle;Trier;Deutschland;6.6318806;49.7398246;OpenStreetMap;;wheelchair: yes
Trier, St. Matthias;Bushaltestelle;Trier;Deutschland;6.6317026;49.739458;OpenStreetMap;;wheelchair: yes
Trier, Mustorstraße;Bushaltestelle;Trier;Deutschland;6.6450938;49.7539368;OpenStreetMap;;
Trier, Gartenfeldstraße;Bushaltestelle;Trier;Deutschland;6.6469406;49.7535766;OpenStreetMap;Stadt Trier;network: VRT
Kürenz (Trier), Universität Campus 2;Bushaltestelle;Trier;Deutschland;6.6762302;49.7491602;OpenStreetMap;Stadt Trier;network: VRT
Trier, Barbarathermen;Bushaltestelle;Trier;Deutschland;6.6318852;49.7504243;OpenStreetMap;;wheelchair: limited
Trier, Barbaraufer/Römerbrücke;Bushaltestelle;Trier;Deutschland;6.6287859;49.75084;OpenStreetMap;;
Pallien (Trier), Hochschule Trier;Bushaltestelle;Trier;Deutschland;6.6267845;49.767499;OpenStreetMap;;
Pallien (Trier), Hochschule Trier;Bushaltestelle;Trier;Deutschland;6.6262431;49.7675599;OpenStreetMap;;
Trier, Pacelliufer;Bushaltestelle;Trier;Deutschland;6.6281236;49.7442694;OpenStreetMap;;
Pallien (Trier), Auf der Jüngt;Bushaltestelle;Trier;Deutschland;6.6254391;49.7647277;OpenStreetMap;;
Pallien (Trier), Auf der Jüngt;Bushaltestelle;Trier;Deutschland;6.6255094;49.7646445;OpenStreetMap;;
Trier, Petrisberg Aussicht;Bushaltestelle;Trier;Deutschland;6.6532039;49.7468138;OpenStreetMap;Stadt Trier;network: VRT
Heiligkreuz (Trier), Franz-Buß-Straße;Bushaltestelle;Trier;Deutschland;6.643976;49.7382272;OpenStreetMap;;
Heiligkreuz (Trier), Im Hopfengarten;Bushaltestelle;Trier;Deutschland;6.6410992;49.7436198;OpenStreetMap;;
Heiligkreuz (Trier), Im Hopfengarten;Bushaltestelle;Trier;Deutschland;6.6410048;49.7436411;OpenStreetMap;;wheelchair: yes
Heiligkreuz (Trier), Rotbachstraße;Bushaltestelle;Trier;Deutschland;6.6420246;49.741471;OpenStreetMap;;
Olewig (Trier), St.-Anna-Straße;Bushaltestelle;Trier;Deutschland;6.657115;49.7424751;OpenStreetMap;;
St. Medard (Trier), St. Medard;Bushaltestelle;Trier;Deutschland;6.6284675;49.730994;OpenStreetMap;;
Trier, Porta Nigra;Bushaltestelle;Trier;Deutschland;6.6443845;49.7594737;OpenStreetMap;Stadtwerke Trier;network: VRT
Trier, Porta Nigra;Bushaltestelle;Trier;Deutschland;6.6437892;49.7591733;OpenStreetMap;Stadtwerke Trier;network: VRT
Pallien (Trier), Sankt Urban;Bushaltestelle;Trier;Deutschland;6.6382306;49.7698963;OpenStreetMap;;
Trier, Kaiserthermen;Bushaltestelle;Trier;Deutschland;6.6405512;49.7501887;OpenStreetMap;;wheelchair: yes
Trier, Deutschherrenstraße;Bushaltestelle;Trier;Deutschland;6.6356479;49.7608111;OpenStreetMap;;wheelchair: yes
Kürenz (Trier), Behringstraße;Bushaltestelle;Trier;Deutschland;6.6771671;49.7500564;OpenStreetMap;;wheelchair: no
Trier, Petrisberg Aussicht;Bushaltestelle;Trier;Deutschland;6.6531611;49.7467803;OpenStreetMap;;wheelchair: no
Trier, Gartenfeldstraße;Bushaltestelle;Trier;Deutschland;6.6468976;49.7536325;OpenStreetMap;;wheelchair: yes
Trier, Gartenfeldstraße;Bushaltestelle;Trier;Deutschland;6.6469866;49.7534854;OpenStreetMap;;
Trier, Rathaus/Stadttheater;Bushaltestelle;Trier;Deutschland;6.6351033;49.7511734;OpenStreetMap;Stadt Trier;"wheelchair: yes; network: VRT"
Trier, Rathaus/Stadttheater;Bushaltestelle;Trier;Deutschland;6.6355178;49.7515515;OpenStreetMap;;wheelchair: no
Trier, Feldstraße/Mutterhaus;Bushaltestelle;Trier;Deutschland;6.632109;49.7523854;OpenStreetMap;;wheelchair: no
Trier, Barbaraufer/Römerbrücke;Bushaltestelle;Trier;Deutschland;6.6301367;49.7520959;OpenStreetMap;;
Biewer (Trier), Donaustraße;Bushaltestelle;Trier;Deutschland;6.6645119;49.7792479;OpenStreetMap;;
Biewer (Trier), Donaustraße;Bushaltestelle;Trier;Deutschland;6.6646449;49.7793882;OpenStreetMap;;
Weismark (Trier), Kyrianderstraße;Bushaltestelle;Trier;Deutschland;6.6376531;49.7361707;OpenStreetMap;Stadt Trier;network: VRT
Heiligkreuz (Trier), Straßburger Allee;Bushaltestelle;Trier;Deutschland;6.641001;49.7392584;OpenStreetMap;Stadt Trier;network: VRT
Trier, Südbahnhof;Bushaltestelle;Trier;Deutschland;6.6350586;49.7454016;OpenStreetMap;;wheelchair: no
Trier, Nordallee;Bushaltestelle;Trier;Deutschland;6.638429;49.7616885;OpenStreetMap;;wheelchair: yes
Trier, Remigiusstraße;Bushaltestelle;Trier;Deutschland;6.6373217;49.764888;OpenStreetMap;;
Trier, St.-Mergener-Straße;Bushaltestelle;Trier;Deutschland;6.6412277;49.765648;OpenStreetMap;;
Trier-Nord, An der Hospitalsmühle;Bushaltestelle;Trier;Deutschland;6.6536389;49.7710619;OpenStreetMap;;wheelchair: yes
Trier-Nord, Castelforte;Bushaltestelle;Trier;Deutschland;6.659643;49.7715199;OpenStreetMap;;
Trier-Nord, Zurmaiener Straße Nord;Bushaltestelle;Trier;Deutschland;6.6589049;49.7722324;OpenStreetMap;;
Trier-Nord, Nordbad;Bushaltestelle;Trier;Deutschland;6.6482346;49.7697183;OpenStreetMap;;wheelchair: yes
Trier, Nordallee;Bushaltestelle;Trier;Deutschland;6.6385052;49.7615497;OpenStreetMap;;wheelchair: yes
Trier-West, Trierweilerweg;Bushaltestelle;Trier;Deutschland;6.6209506;49.7513108;OpenStreetMap;;
Trier, Karl-Marx-Haus;Bushaltestelle;Trier;Deutschland;6.6355636;49.7536932;OpenStreetMap;;
Mariahof (Trier), Am Mariahof;Bushaltestelle;Trier;Deutschland;6.6590117;49.733472;OpenStreetMap;;wheelchair: yes
Trier, Petrisberg;Bushaltestelle;Trier;Deutschland;6.6605682;49.7502008;OpenStreetMap;;wheelchair: yes
Trier, Trier Galerie;Bushaltestelle;Trier;Deutschland;6.6370603;49.7557133;OpenStreetMap;;wheelchair: yes
Trier, Charlottenstraße;Bushaltestelle;Trier;Deutschland;6.6443307;49.748212;OpenStreetMap;;
Heiligkreuz (Trier), Metzer Allee;Bushaltestelle;Trier;Deutschland;6.6435581;49.7469452;OpenStreetMap;;network: VRT
Heiligkreuz (Trier), Metzer Allee;Bushaltestelle;Trier;Deutschland;6.6428143;49.7477566;OpenStreetMap;Stadtwerke Trier;
Olewig (Trier), Hunsrückstraße;Bushaltestelle;Trier;Deutschland;6.6695816;49.7419797;OpenStreetMap;;wheelchair: yes
Olewig (Trier), Kleeburger Weg;Bushaltestelle;Trier;Deutschland;6.6733859;49.7411001;OpenStreetMap;;wheelchair: yes
Olewig (Trier), Kleeburger Weg;Bushaltestelle;Trier;Deutschland;6.6719855;49.7411339;OpenStreetMap;;wheelchair: yes
Trier, Zurlaubener Ufer;Bushaltestelle;Trier;Deutschland;6.6334559;49.7631742;OpenStreetMap;;
Trier, Südbahnhof;Bushaltestelle;Trier;Deutschland;6.6343111;49.7441221;OpenStreetMap;;"wheelchair: no; network: Verkehrsverbund Region Trier"
Trier, Südbahnhof;Bushaltestelle;Trier;Deutschland;6.6352647;49.7447834;OpenStreetMap;;wheelchair: no
Trier-West, Hohensteinstraße;Bushaltestelle;Trier;Deutschland;6.6219459;49.75242;OpenStreetMap;;wheelchair: yes
Pallien (Trier), Römerstraße;Bushaltestelle;Trier;Deutschland;6.6257131;49.759801;OpenStreetMap;;wheelchair: yes
Trier-West, Steinsweg;Bushaltestelle;Trier;Deutschland;6.623559;49.7568117;OpenStreetMap;;
Trier, Pacelliufer;Bushaltestelle;Trier;Deutschland;6.6280473;49.7442655;OpenStreetMap;;
Trier, Treviris;Bushaltestelle;Trier;Deutschland;6.6409949;49.7583632;OpenStreetMap;Stadt Trier;
Pallien (Trier), Palliener Straße;Bushaltestelle;Trier;Deutschland;6.6331686;49.7669158;OpenStreetMap;;wheelchair: yes
Pallien (Trier), Bitburger Straße;Bushaltestelle;Trier;Deutschland;6.6294267;49.7646633;OpenStreetMap;;network: Verkehrsverbund Region Trier
Trier, Petrisberg Aussicht;Bushaltestelle;Trier;Deutschland;6.653395;49.748554;OpenStreetMap;;wheelchair: no
Trier, Balduinsbrunnen/Hauptbahnhof;Bushaltestelle;Trier;Deutschland;6.6497325;49.7579964;OpenStreetMap;;wheelchair: yes
Olewig (Trier), Tiergarten;Bushaltestelle;Trier;Deutschland;6.6540322;49.743821;OpenStreetMap;;
Trier, Nikolaus-Koch-Platz;Bushaltestelle;Trier;Deutschland;6.6379773;49.7570095;OpenStreetMap;;wheelchair: yes
Trier, Bei der Römerbrücke;Bushaltestelle;Trier;Deutschland;6.6279613;49.7515542;OpenStreetMap;;
Trier, Pacelliufer;Bushaltestelle;Trier;Deutschland;6.628353;49.745264;OpenStreetMap;;
Biewer (Trier), Süd;Bushaltestelle;Trier;Deutschland;6.6617971;49.7775086;OpenStreetMap;;
Trier, Gilbertstraße;Bushaltestelle;Trier;Deutschland;6.6361097;49.7476479;OpenStreetMap;;wheelchair: yes
Trier, Gilbertstraße;Bushaltestelle;Trier;Deutschland;6.6359688;49.7476419;OpenStreetMap;;wheelchair: yes
Trier, Franz-Georg-Straße;Bushaltestelle;Trier;Deutschland;6.6584517;49.7641161;OpenStreetMap;;wheelchair: yes
Kürenz (Trier), Am Wissenschaftspark;Bushaltestelle;Trier;Deutschland;6.6677056;49.7559236;OpenStreetMap;Stadt Trier;network: VRT
Olewig (Trier), Retzgrubenweg;Bushaltestelle;Trier;Deutschland;6.6596281;49.7430349;OpenStreetMap;;
Olewig (Trier), Brettenbach;Bushaltestelle;Trier;Deutschland;6.6656396;49.7429862;OpenStreetMap;;network: VRT
Olewig (Trier), Brettenbach;Bushaltestelle;Trier;Deutschland;6.666973;49.7436936;OpenStreetMap;;
Olewig (Trier), Tiergarten;Bushaltestelle;Trier;Deutschland;6.6548137;49.7438119;OpenStreetMap;;
Feyen (Trier), Auf dem Kirchspiel;Bushaltestelle;Trier;Deutschland;6.6276401;49.7271799;OpenStreetMap;;wheelchair: yes
Feyen (Trier), Auf dem Kirchspiel;Bushaltestelle;Trier;Deutschland;6.6279743;49.7273289;OpenStreetMap;;wheelchair: yes
Trier-Nord, Nells Park/Parkstraße;Bushaltestelle;Trier;Deutschland;6.666024;49.770867;OpenStreetMap;;
Trier, Franz-Georg-Straße;Bushaltestelle;Trier;Deutschland;6.657995;49.763313;OpenStreetMap;;wheelchair: yes
Trier, Franz-Georg-Straße;Bushaltestelle;Trier;Deutschland;6.6588061;49.7644911;OpenStreetMap;;wheelchair: yes
Heiligkreuz (Trier), Am Herrenbrüchen;Bushaltestelle;Trier;Deutschland;6.6453805;49.7440169;OpenStreetMap;;
Heiligkreuz (Trier), Hans-Böckler-Allee;Bushaltestelle;Trier;Deutschland;6.6456291;49.7416482;OpenStreetMap;;wheelchair: yes
Trier, Karl-Marx-Haus;Bushaltestelle;Trier;Deutschland;6.6364623;49.7535319;OpenStreetMap;Stadt Trier;network: VRT
Trier Hbf, Kürenzer Straße;Bushaltestelle;Trier;Deutschland;6.6530741;49.7582248;OpenStreetMap;Stadt Trier;network: VRT
Trier Hbf;Bushaltestelle;Trier;Deutschland;6.6533136;49.7581386;OpenStreetMap;;ref: 10
Trier, St. Paulin;Bushaltestelle;Trier;Deutschland;6.649782;49.7633175;OpenStreetMap;;
Trier, Helenenstraße;Bushaltestelle;Trier;Deutschland;6.649577;49.7529727;OpenStreetMap;Stadt Trier;network: VRT
Trier, Konstantin Basilika;Bushaltestelle;Trier;Deutschland;6.6421626;49.753578;OpenStreetMap;Stadt Trier;network: VRT
Trier, Barbaraufer/Römerbrücke;Bushaltestelle;Trier;Deutschland;6.63016;49.7520684;OpenStreetMap;;
Trier, Hauptbahnhof;Bushaltestelle;Trier;Deutschland;6.6521117;49.7580279;OpenStreetMap;Stadt Trier;network: VRT
Trier, Südallee/Kaiserstraße;Bushaltestelle;Trier;Deutschland;6.6359121;49.7502951;OpenStreetMap;Stadt Trier;"wheelchair: yes; network: VRT"
Trier, Karl-Marx-Haus;Bushaltestelle;Trier;Deutschland;6.6365165;49.7537122;OpenStreetMap;Stadt Trier;network: VRT
Kürenz (Trier), Universität Campus 2;Bushaltestelle;Trier;Deutschland;6.6763305;49.7491547;OpenStreetMap;;
Kürenz (Trier), Behringstraße;Bushaltestelle;Trier;Deutschland;6.6771226;49.7506475;OpenStreetMap;;
Kürenz (Trier), Behringstraße;Bushaltestelle;Trier;Deutschland;6.6772789;49.7500631;OpenStreetMap;Stadt Trier;network: VRT
Olewig (Trier), Hunsrückstraße;Bushaltestelle;Trier;Deutschland;6.6696676;49.7419931;OpenStreetMap;Stadt Trier;network: VRT
Trier, Hauptbahnhof;Bushaltestelle;Trier;Deutschland;6.6521007;49.757812;OpenStreetMap;Stadt Trier;network: VRT
Trier, Hauptbahnhof;Bushaltestelle;Trier;Deutschland;6.6516884;49.7573713;OpenStreetMap;Stadt Trier;network: VRT
Trier, Hauptbahnhof;Bushaltestelle;Trier;Deutschland;6.6519995;49.7577038;OpenStreetMap;;
Trier, Hauptbahnhof;Bushaltestelle;Trier;Deutschland;6.6518805;49.7573265;OpenStreetMap;Stadt Trier;network: VRT
Trier, Hauptbahnhof;Bushaltestelle;Trier;Deutschland;6.6524528;49.7577321;OpenStreetMap;Stadt Trier;network: VRT
Trier, Hauptbahnhof;Bushaltestelle;Trier;Deutschland;6.6522923;49.7577631;OpenStreetMap;Stadt Trier;network: VRT
Trier Hbf;Bushaltestelle;Trier;Deutschland;6.6532548;49.7578854;OpenStreetMap;;ref: 11
Trier Hbf;Bushaltestelle;Trier;Deutschland;6.6536438;49.7579957;OpenStreetMap;;ref: 13
Trier Hbf;Bushaltestelle;Trier;Deutschland;6.6513249;49.7556782;OpenStreetMap;;ref: 13
Trier Hbf;Bushaltestelle;Trier;Deutschland;6.6510273;49.7558238;OpenStreetMap;;ref: 10
Trier, Gartenfeldstraße;Bushaltestelle;Trier;Deutschland;6.6468694;49.7535256;OpenStreetMap;Stadt Trier;network: VRT
Biewer (Trier), Süd;Bushaltestelle;Trier;Deutschland;6.661755;49.7775297;OpenStreetMap;;wheelchair: limited
Biewer (Trier), Süd;Bushaltestelle;Trier;Deutschland;6.6627394;49.777915;OpenStreetMap;;
Pallien (Trier), Sankt Urban;Bushaltestelle;Trier;Deutschland;6.6391145;49.7702401;OpenStreetMap;;
Trier, Stadtbibliothek;Bushaltestelle;Trier;Deutschland;6.6408707;49.7513043;OpenStreetMap;;wheelchair: yes
Trier, Stadtbibliothek;Bushaltestelle;Trier;Deutschland;6.64123;49.7517903;OpenStreetMap;;wheelchair: yes
Trier, Kaiserthermen;Bushaltestelle;Trier;Deutschland;6.641104;49.7489963;OpenStreetMap;;wheelchair: yes
Olewig (Trier), Tiergarten;Bushaltestelle;Trier;Deutschland;6.6551077;49.7435014;OpenStreetMap;Stadt Trier;network: VRT
Olewig (Trier), Retzgrubenweg;Bushaltestelle;Trier;Deutschland;6.6596194;49.7429762;OpenStreetMap;;
Heiligkreuz (Trier), Bernhardstraße;Bushaltestelle;Trier;Deutschland;6.6443565;49.7453051;OpenStreetMap;;network: VRT
Heiligkreuz (Trier), Bernhardstraße;Bushaltestelle;Trier;Deutschland;6.6445015;49.7453489;OpenStreetMap;;
Trier, Helenenstraße;Bushaltestelle;Trier;Deutschland;6.649619;49.7530298;OpenStreetMap;;
Trier, Porta Nigra;Bushaltestelle;Trier;Deutschland;6.6427773;49.7591944;OpenStreetMap;Stadtwerke Trier;network: VRT
Trier, Porta Nigra;Bushaltestelle;Trier;Deutschland;6.6427042;49.7591673;OpenStreetMap;;wheelchair: yes
Trier, Porta Nigra;Bushaltestelle;Trier;Deutschland;6.6424658;49.7600515;OpenStreetMap;Stadt Trier;network: VRT
Trier, Porta Nigra;Bushaltestelle;Trier;Deutschland;6.6422736;49.7595924;OpenStreetMap;;
Trier, SWT Stadtwerke;Bushaltestelle;Trier;Deutschland;6.6487809;49.7559322;OpenStreetMap;;wheelchair: yes
Trier, Porta Nigra;Bushaltestelle;Trier;Deutschland;6.6441735;49.7593951;OpenStreetMap;Stadtwerke Trier;network: VRT
Trier, Porta Nigra;Bushaltestelle;Trier;Deutschland;6.6441853;49.7593358;OpenStreetMap;;wheelchair: yes
Trier, Porta Nigra;Bushaltestelle;Trier;Deutschland;6.6429818;49.7590399;OpenStreetMap;;wheelchair: yes
Trier, Porta Nigra;Bushaltestelle;Trier;Deutschland;6.6430079;49.7590715;OpenStreetMap;Stadtwerke Trier;network: VRT
Trier, Porta Nigra;Bushaltestelle;Trier;Deutschland;6.6438173;49.759124;OpenStreetMap;;wheelchair: yes
Trier, SWT Stadtwerke;Bushaltestelle;Trier;Deutschland;6.6474414;49.7553209;OpenStreetMap;;wheelchair: yes
Trier, Porta Nigra;Bushaltestelle;Trier;Deutschland;6.6424408;49.7596036;OpenStreetMap;Stadt Trier;network: VRT
Kürenz (Trier), Am Wissenschaftspark;Bushaltestelle;Trier;Deutschland;6.6671946;49.7555998;OpenStreetMap;Stadt Trier;network: VRT
Kürenz (Trier), Am Wissenschaftspark;Bushaltestelle;Trier;Deutschland;6.6671014;49.7555773;OpenStreetMap;;wheelchair: yes
Trier, Helenenstraße;Bushaltestelle;Trier;Deutschland;6.6494105;49.75295;OpenStreetMap;;
Trier, Kurfürstenstraße;Bushaltestelle;Trier;Deutschland;6.6526515;49.7518735;OpenStreetMap;Stadt Trier;network: VRT
Heiligkreuz (Trier), Am Herrenbrüchen;Bushaltestelle;Trier;Deutschland;6.6452493;49.7440316;OpenStreetMap;;
Kürenz (Trier), Am Wasserturm;Bushaltestelle;Trier;Deutschland;6.6638735;49.7522417;OpenStreetMap;;
Kürenz (Trier), Am Wasserturm;Bushaltestelle;Trier;Deutschland;6.6636887;49.7523113;OpenStreetMap;;
Kürenz (Trier), Am Wasserturm;Bushaltestelle;Trier;Deutschland;6.6637477;49.7522873;OpenStreetMap;Stadt Trier;network: VRT
Trier, Petrisberg Aussicht;Bushaltestelle;Trier;Deutschland;6.6533002;49.7485574;OpenStreetMap;Stadt Trier;network: VRT
St.Matthias (Trier), St. Matthias Kirche;Bushaltestelle;Trier;Deutschland;6.630997;49.7386848;OpenStreetMap;Stadt Trier;network: VRT
Feyen (Trier), Fritz-Quant-Straße;Bushaltestelle;Trier;Deutschland;6.6285376;49.7237371;OpenStreetMap;;
Feyen (Trier), Estricher Weg;Bushaltestelle;Trier;Deutschland;6.6303212;49.7263473;OpenStreetMap;Stadt Trier;network: VRT
St.Matthias (Trier), St.Matthias/Aulstraße;Bushaltestelle;Trier;Deutschland;6.6317368;49.7389255;OpenStreetMap;Stadt Trier;network: VRT
Feyen (Trier), Pellinger Straße;Bushaltestelle;Trier;Deutschland;6.6311907;49.7254413;OpenStreetMap;;network: Verkehrsverbund Region Trier
St.Matthias (Trier), St.Matthias/Aulstraße;Bushaltestelle;Trier;Deutschland;6.6317889;49.7388964;OpenStreetMap;;
Feyen (Trier), Estricher Weg;Bushaltestelle;Trier;Deutschland;6.6294097;49.7267513;OpenStreetMap;;wheelchair: yes
Feyen (Trier), Estricher Weg;Bushaltestelle;Trier;Deutschland;6.6303837;49.7264137;OpenStreetMap;;
Feyen (Trier), Pellinger Straße;Bushaltestelle;Trier;Deutschland;6.6313635;49.7255655;OpenStreetMap;;network: Verkehrsverbund Region Trier
St.Matthias (Trier), St. Matthias Kirche;Bushaltestelle;Trier;Deutschland;6.6308427;49.7386931;OpenStreetMap;;wheelchair: yes
Feyen (Trier), Fritz-Quant-Straße;Bushaltestelle;Trier;Deutschland;6.628378;49.7238277;OpenStreetMap;;
Feyen (Trier), Grafschaft;Bushaltestelle;Trier;Deutschland;6.6270413;49.7201274;OpenStreetMap;;
Feyen (Trier), Zum Römersprudel;Bushaltestelle;Trier;Deutschland;6.6218909;49.7205027;OpenStreetMap;;
Trier-Pallien;Bushaltestelle;Trier;Deutschland;6.6293545;49.7633641;OpenStreetMap;;ref: 1
Trier-Pallien;Bushaltestelle;Trier;Deutschland;6.6302301;49.7642687;OpenStreetMap;;ref: 2
Trier, Charlottenstraße;Bushaltestelle;Trier;Deutschland;6.6443542;49.7482765;OpenStreetMap;Stadt Trier;network: VRT
Trier, Charlottenstraße;Bushaltestelle;Trier;Deutschland;6.6454622;49.7480532;OpenStreetMap;;
Trier, Charlottenstraße;Bushaltestelle;Trier;Deutschland;6.6453785;49.7480055;OpenStreetMap;Stadt Trier;network: VRT
Pallien (Trier), Bitburger Straße;Bushaltestelle;Trier;Deutschland;6.6305326;49.7648463;OpenStreetMap;;network: Verkehrsverbund Region Trier
Pallien (Trier), Bonner Straße;Bushaltestelle;Trier;Deutschland;6.6305955;49.7649254;OpenStreetMap;;network: Verkehrsverbund Region Trier
Trier, Irminenfreihof;Bushaltestelle;Trier;Deutschland;6.6318274;49.7592114;OpenStreetMap;;
Trier, Petrisberg;Bushaltestelle;Trier;Deutschland;6.6601188;49.750033;OpenStreetMap;;wheelchair: yes
Trier, Petrisberg;Bushaltestelle;Trier;Deutschland;6.66047;49.7502073;OpenStreetMap;Stadt Trier;network: VRT
Kürenz (Trier), Martin-Schunck-Straße;Bushaltestelle;Trier;Deutschland;6.6752028;49.7534886;OpenStreetMap;;wheelchair: yes
Kürenz (Trier), Martin-Schunck-Straße;Bushaltestelle;Trier;Deutschland;6.6752302;49.7535155;OpenStreetMap;Stadt Trier;network: VRT
Kürenz (Trier), Kuno-Stapel-Straße;Bushaltestelle;Trier;Deutschland;6.6730129;49.7546952;OpenStreetMap;;wheelchair: yes
Kürenz (Trier), Kuno-Stapel-Straße;Bushaltestelle;Trier;Deutschland;6.6723304;49.7551367;OpenStreetMap;Stadt Trier;network: VRT
Kürenz (Trier), Avelerhof;Bushaltestelle;Trier;Deutschland;6.679644;49.7590064;OpenStreetMap;;
Pallien (Trier), Bitburger Straße;Bushaltestelle;Trier;Deutschland;6.6306771;49.7646388;OpenStreetMap;;network: Verkehrsverbund Region Trier
Pallien (Trier), Hochschule Trier;Bushaltestelle;Trier;Deutschland;6.6262722;49.76844;OpenStreetMap;;
Feyen (Trier), Auf dem Kirchspiel;Bushaltestelle;Trier;Deutschland;6.6279236;49.727278;OpenStreetMap;;
St. Medard (Trier), Konzer Straße;Bushaltestelle;Trier;Deutschland;6.6290809;49.7328552;OpenStreetMap;;
Heiligkreuz (Trier), Wisportstraße;Bushaltestelle;Trier;Deutschland;6.6411775;49.7430016;OpenStreetMap;;wheelchair: no
Weismark (Trier), Im Reutersfeld;Bushaltestelle;Trier;Deutschland;6.6350593;49.7263529;OpenStreetMap;;
Olewig (Trier), Kleeburger Weg;Bushaltestelle;Trier;Deutschland;6.6730555;49.7403333;OpenStreetMap;;wheelchair: yes
Olewig (Trier), Kleeburger Weg;Bushaltestelle;Trier;Deutschland;6.6731523;49.7403637;OpenStreetMap;Stadt Trier;network: VRT
Trier, Hauptfriedhof;Bushaltestelle;Trier;Deutschland;6.6550269;49.7661448;OpenStreetMap;Stadt Trier;network: VRT
Trier-Nord, An der Hospitalsmühle;Bushaltestelle;Trier;Deutschland;6.6534056;49.7712154;OpenStreetMap;Stadt Trier;network: VRT
Trier, Hochwaldstraße;Bushaltestelle;Trier;Deutschland;6.6607779;49.7694709;OpenStreetMap;;
Trier, Am Keltenweg Nord;Bushaltestelle;Trier;Deutschland;6.6615532;49.7657807;OpenStreetMap;Stadt Trier;network: VRT
Weismark (Trier), Altenheim Härenwies;Bushaltestelle;Trier;Deutschland;6.6436411;49.7274944;OpenStreetMap;;
Trier, Pferdemarkt;Bushaltestelle;Trier;Deutschland;6.6391776;49.7593456;OpenStreetMap;;
Trier-Nord, An der Hospitalsmühle;Bushaltestelle;Trier;Deutschland;6.6534673;49.7713109;OpenStreetMap;;wheelchair: yes
Trier, Wasserweg;Bushaltestelle;Trier;Deutschland;6.6537109;49.7651693;OpenStreetMap;;
Trier, Hauptbahnhof;Bushaltestelle;Trier;Deutschland;6.6520422;49.7579532;OpenStreetMap;Stadt Trier;network: VRT
Trier, Hauptbahnhof;Bushaltestelle;Trier;Deutschland;6.652066;49.7573339;OpenStreetMap;Stadt Trier;network: VRT
Trier, Bruchhausenstraße;Bushaltestelle;Trier;Deutschland;6.6383027;49.7611795;OpenStreetMap;;"wheelchair: limited; network: VRT"
Trier, St. Paulin;Bushaltestelle;Trier;Deutschland;6.6511235;49.7639478;OpenStreetMap;Stadt Trier;"wheelchair: yes; network: VRT"
Trier-Nord, Rudolf-Diesel-Straße;Bushaltestelle;Trier;Deutschland;6.6725168;49.7738601;OpenStreetMap;Stadt Trier;network: VRT
Trier, Hauptfriedhof;Bushaltestelle;Trier;Deutschland;6.6555177;49.7665136;OpenStreetMap;Stadt Trier;network: VRT
Trier, SWT-Arena;Bushaltestelle;Trier;Deutschland;6.6645154;49.7711869;OpenStreetMap;Stadt Trier;network: VRT
Trier, Maarstraße;Bushaltestelle;Trier;Deutschland;6.6473121;49.7617557;OpenStreetMap;Stadt Trier;"wheelchair: yes; network: VRT"
Trier-Nord, P+R Nord;Bushaltestelle;Trier;Deutschland;6.6690158;49.7726114;OpenStreetMap;Stadt Trier;network: VRT
Trier, Rathaus/Stadttheater;Bushaltestelle;Trier;Deutschland;6.6349445;49.7510952;OpenStreetMap;;
Pallien (Trier), Bitburger Straße;Bushaltestelle;Trier;Deutschland;6.6295393;49.7646678;OpenStreetMap;Stadt Trier;network: VRT
Trier, Irminenfreihof;Bushaltestelle;Trier;Deutschland;6.63172;49.7592471;OpenStreetMap;Stadt Trier;network: VRT
Trier, Kaiserthermen;Bushaltestelle;Trier;Deutschland;6.6406188;49.749393;OpenStreetMap;Stadt Trier;network: VRT
Trier, Kaiserthermen;Bushaltestelle;Trier;Deutschland;6.6406839;49.7494865;OpenStreetMap;;
Trier, Amphitheater;Bushaltestelle;Trier;Deutschland;6.6494662;49.7463194;OpenStreetMap;Stadt Trier;network: VRT
Trier, Amphitheater;Bushaltestelle;Trier;Deutschland;6.6494158;49.7462927;OpenStreetMap;;
Olewig (Trier), Kleeburger Weg;Bushaltestelle;Trier;Deutschland;6.6732853;49.7403493;OpenStreetMap;;
Trier, Gilbertstraße;Bushaltestelle;Trier;Deutschland;6.6360259;49.7476152;OpenStreetMap;Stadt Trier;"wheelchair: yes; network: VRT"
Trier, Barbarathermen;Bushaltestelle;Trier;Deutschland;6.6318969;49.7504697;OpenStreetMap;Stadt Trier;network: VRT
Trier, Porta Nigra;Bushaltestelle;Trier;Deutschland;6.6424534;49.7598708;OpenStreetMap;Stadt Trier;network: VRT
Mariahof (Trier), Anheierstraße;Bushaltestelle;Trier;Deutschland;6.6600598;49.7311381;OpenStreetMap;;
Mariahof (Trier), Trebetastraße;Bushaltestelle;Trier;Deutschland;6.6551607;49.7271795;OpenStreetMap;;
Trier, Bei der Römerbrücke;Bushaltestelle;Trier;Deutschland;6.6283299;49.7534575;OpenStreetMap;Stadt Trier;network: VRT
Trier, Bei der Römerbrücke;Bushaltestelle;Trier;Deutschland;6.628117;49.7515502;OpenStreetMap;Stadt Trier;network: VRT
Trier, Barbaraufer/Römerbrücke;Bushaltestelle;Trier;Deutschland;6.6288039;49.7508878;OpenStreetMap;Stadt Trier;network: VRT
Trier, Treviris;Bushaltestelle;Trier;Deutschland;6.6409433;49.7584176;OpenStreetMap;;wheelchair: yes
Trier Hbf;Bushaltestelle;Trier;Deutschland;6.6535014;49.7580565;OpenStreetMap;;ref: 12
Trier Süd;Bushaltestelle;Trier;Deutschland;6.6363711;49.7444003;OpenStreetMap;;ref: 1
Olewig (Trier), Auf der Hill;Bushaltestelle;Trier;Deutschland;6.6641668;49.7411897;OpenStreetMap;;
Trier, Franz-Georg-Straße;Bushaltestelle;Trier;Deutschland;6.6580082;49.7633825;OpenStreetMap;Stadt Trier;network: VRT
Olewig (Trier), St.-Anna-Straße;Bushaltestelle;Trier;Deutschland;6.6571452;49.7425358;OpenStreetMap;;
Trier, An der Feldport;Bushaltestelle;Trier;Deutschland;6.6574474;49.7678179;OpenStreetMap;Stadt Trier;network: VRT
Trier, An der Feldport;Bushaltestelle;Trier;Deutschland;6.6579884;49.7681438;OpenStreetMap;Stadt Trier;network: VRT
Trier, Südallee/Kaiserstraße;Bushaltestelle;Trier;Deutschland;6.6359298;49.7498869;OpenStreetMap;;
Euren (Trier), Messepark P+R;Bushaltestelle;Trier;Deutschland;6.6216632;49.7403735;OpenStreetMap;Stadt Trier;network: VRT
Kürenz (Trier), Arnoldistraße;Bushaltestelle;Trier;Deutschland;6.6635634;49.7614565;OpenStreetMap;;
Trier, Friedrich-Ebert-Allee;Bushaltestelle;Trier;Deutschland;6.6377266;49.761542;OpenStreetMap;;
Trier, Friedrich-Ebert-Allee;Bushaltestelle;Trier;Deutschland;6.6377155;49.7616132;OpenStreetMap;Stadt Trier;network: VRT
Trier, Kaiserthermen;Bushaltestelle;Trier;Deutschland;6.6411011;49.7490995;OpenStreetMap;;
Trier, Töpferstraße;Bushaltestelle;Trier;Deutschland;6.6334748;49.7421237;OpenStreetMap;;
Trier, Töpferstraße;Bushaltestelle;Trier;Deutschland;6.6331341;49.7416835;OpenStreetMap;;
Trier, Christophstraße;Bushaltestelle;Trier;Deutschland;6.6455334;49.7592042;OpenStreetMap;Stadt Trier;network: VRT
Trier, Bei der Römerbrücke;Bushaltestelle;Trier;Deutschland;6.6284298;49.7534285;OpenStreetMap;;
Trier Hbf;Bushaltestelle;Trier;Deutschland;6.6511933;49.7557537;OpenStreetMap;;ref: 12
St. Medard (Trier), Im Schammat;Bushaltestelle;Trier;Deutschland;6.6301453;49.7360242;OpenStreetMap;;
Trier, Nordallee/Krankenhaus;Bushaltestelle;Trier;Deutschland;6.6401728;49.7612527;OpenStreetMap;Stadt Trier;network: VRT
Trier, Nordallee/Krankenhaus;Bushaltestelle;Trier;Deutschland;6.6402582;49.7613035;OpenStreetMap;;
Trier, St. Paulin;Bushaltestelle;Trier;Deutschland;6.6497034;49.7633369;OpenStreetMap;;wheelchair: no
Trier, Maarstraße;Bushaltestelle;Trier;Deutschland;6.647317;49.7617065;OpenStreetMap;;
Trier, Maarstraße;Bushaltestelle;Trier;Deutschland;6.6473043;49.7618031;OpenStreetMap;;wheelchair: no
Trier, Schützenstraße;Bushaltestelle;Trier;Deutschland;6.650092;49.7499191;OpenStreetMap;;
Trier, Schützenstraße;Bushaltestelle;Trier;Deutschland;6.6499699;49.7499321;OpenStreetMap;;
Trier, Amphitheater;Bushaltestelle;Trier;Deutschland;6.6488481;49.746873;OpenStreetMap;;
Trier, Theodor-Heuss-Allee;Bushaltestelle;Trier;Deutschland;6.64653;49.7592285;OpenStreetMap;;
Trier, Theodor-Heuss-Allee;Bushaltestelle;Trier;Deutschland;6.6461089;49.7593862;OpenStreetMap;;
Trier, Porta Nigra;Bushaltestelle;Trier;Deutschland;6.6423339;49.7598843;OpenStreetMap;;
Trier, Porta Nigra;Bushaltestelle;Trier;Deutschland;6.6423407;49.7600508;OpenStreetMap;;
Trier, Treviris;Bushaltestelle;Trier;Deutschland;6.640845;49.7588354;OpenStreetMap;Stadt Trier;network: VRT
Heiligkreuz (Trier), Karlsweg;Bushaltestelle;Trier;Deutschland;6.6516045;49.7363177;OpenStreetMap;;"wheelchair: yes; network: VRT"
Heiligkreuz (Trier), Karlsweg;Bushaltestelle;Trier;Deutschland;6.6514114;49.7353313;OpenStreetMap;;wheelchair: yes
Trier Süd;Bushaltestelle;Trier;Deutschland;6.636523;49.7443563;OpenStreetMap;;ref: 2
Trier, Balduinsbrunnen/Hauptbahnhof;Bushaltestelle;Trier;Deutschland;6.649294;49.7574664;OpenStreetMap;;wheelchair: yes
Trier, Hauptfriedhof;Bushaltestelle;Trier;Deutschland;6.6549298;49.7661837;OpenStreetMap;;wheelchair: yes
Trier, Hauptfriedhof;Bushaltestelle;Trier;Deutschland;6.655562;49.7664645;OpenStreetMap;;
Trier-Nord, Handwerkskammer;Bushaltestelle;Trier;Deutschland;6.6792979;49.7754587;OpenStreetMap;;
Trier, Konstantin Basilika;Bushaltestelle;Trier;Deutschland;6.6422472;49.7535544;OpenStreetMap;;
Trier, Benediktinerstraße;Bushaltestelle;Trier;Deutschland;6.6454978;49.765706;OpenStreetMap;;
Trier, Benediktinerstraße;Bushaltestelle;Trier;Deutschland;6.6454594;49.7655784;OpenStreetMap;;
Trier, Wilhelm-Leuschner-Straße;Bushaltestelle;Trier;Deutschland;6.6470504;49.7679793;OpenStreetMap;;
Kürenz (Trier), Avelerhof;Bushaltestelle;Trier;Deutschland;6.6796446;49.7588599;OpenStreetMap;;
Kürenz (Trier), Im Avelertal;Bushaltestelle;Trier;Deutschland;6.6740455;49.7600113;OpenStreetMap;;
Kürenz (Trier), Kolonnenweg;Bushaltestelle;Trier;Deutschland;6.6720298;49.7610709;OpenStreetMap;;
Kürenz (Trier), Kolonnenweg;Bushaltestelle;Trier;Deutschland;6.6710213;49.7617067;OpenStreetMap;;
Kürenz (Trier), Domänenstraße;Bushaltestelle;Trier;Deutschland;6.6668062;49.7631309;OpenStreetMap;;
Kürenz (Trier), Nellstraße;Bushaltestelle;Trier;Deutschland;6.6614485;49.7605779;OpenStreetMap;;
Kürenz (Trier), Nellstraße;Bushaltestelle;Trier;Deutschland;6.6608504;49.7604103;OpenStreetMap;;
Kürenz (Trier), Schönbornstraße;Bushaltestelle;Trier;Deutschland;6.658815;49.7592535;OpenStreetMap;;
Kürenz (Trier), Schönbornstraße;Bushaltestelle;Trier;Deutschland;6.6582379;49.7594508;OpenStreetMap;;
Heiligkreuz (Trier), Wisportstraße;Bushaltestelle;Trier;Deutschland;6.6412488;49.7430688;OpenStreetMap;;wheelchair: no
Heiligkreuz (Trier), Peter-Wust-Straße;Bushaltestelle;Trier;Deutschland;6.6494161;49.7393351;OpenStreetMap;;wheelchair: yes
Heiligkreuz (Trier), Peter-Wust-Straße;Bushaltestelle;Trier;Deutschland;6.6489145;49.7394738;OpenStreetMap;;wheelchair: yes
Trier, Am Keltenweg Nord;Bushaltestelle;Trier;Deutschland;6.6620292;49.7660199;OpenStreetMap;Stadt Trier;network: VRT
Trier, Am Keltenweg Nord;Bushaltestelle;Trier;Deutschland;6.6621056;49.7659922;OpenStreetMap;;
Trier, Am Keltenweg Nord;Bushaltestelle;Trier;Deutschland;6.6615048;49.7658232;OpenStreetMap;;
Trier, Thyrsusstraße;Bushaltestelle;Trier;Deutschland;6.6641367;49.7675656;OpenStreetMap;Stadt Trier;network: VRT
Trier, Thyrsusstraße;Bushaltestelle;Trier;Deutschland;6.6642031;49.767573;OpenStreetMap;;
Trier, Thyrsusstraße;Bushaltestelle;Trier;Deutschland;6.6638508;49.7673455;OpenStreetMap;;
Kernscheid (Trier), Höhenweg 2;Bushaltestelle;Trier;Deutschland;6.6735855;49.7361351;OpenStreetMap;;
Kernscheid (Trier), Höhenweg 1;Bushaltestelle;Trier;Deutschland;6.6697647;49.7389217;OpenStreetMap;;
Mariahof (Trier), Wolfsberg;Bushaltestelle;Trier;Deutschland;6.6528271;49.7300644;OpenStreetMap;;wheelchair: yes
Mariahof (Trier), Wolkerstraße;Bushaltestelle;Trier;Deutschland;6.6565508;49.7276383;OpenStreetMap;;wheelchair: yes
Mariahof (Trier), Am Mariahof;Bushaltestelle;Trier;Deutschland;6.659233;49.7333787;OpenStreetMap;;wheelchair: yes
Weismark (Trier), Am Bildstock;Bushaltestelle;Trier;Deutschland;6.6394369;49.7300761;OpenStreetMap;;
Weismark (Trier), Cusanusstraße;Bushaltestelle;Trier;Deutschland;6.6390654;49.7320429;OpenStreetMap;;
Weismark (Trier), Joseph-Haydn-Straße;Bushaltestelle;Trier;Deutschland;6.638348;49.7347899;OpenStreetMap;;
Heiligkreuz (Trier), Straßburger Allee;Bushaltestelle;Trier;Deutschland;6.6410691;49.7391852;OpenStreetMap;;
Heiligkreuz (Trier), Straßburger Allee;Bushaltestelle;Trier;Deutschland;6.6409309;49.7392987;OpenStreetMap;;
Heiligkreuz (Trier), An der Ziegelei;Bushaltestelle;Trier;Deutschland;6.6462625;49.7393949;OpenStreetMap;;wheelchair: yes
Irsch (Trier), Irscher Hof;Bushaltestelle;Trier;Deutschland;6.679721;49.7343391;OpenStreetMap;;
Irsch (Trier), Irscher Hof;Bushaltestelle;Trier;Deutschland;6.6797224;49.734086;OpenStreetMap;;
Trier, Kurfürstenstraße;Bushaltestelle;Trier;Deutschland;6.6526146;49.7519025;OpenStreetMap;;
Trier, Kurfürstenstraße;Bushaltestelle;Trier;Deutschland;6.6529043;49.7520135;OpenStreetMap;;
Kürenz (Trier), Alberoweg;Bushaltestelle;Trier;Deutschland;6.6633636;49.7632132;OpenStreetMap;;
Kürenz (Trier), Alberoweg;Bushaltestelle;Trier;Deutschland;6.6638276;49.7633347;OpenStreetMap;;
Trier, Karl-Marx-Haus;Bushaltestelle;Trier;Deutschland;6.6363769;49.7535071;OpenStreetMap;;wheelchair: yes
Pallien (Trier), Palliener Straße;Bushaltestelle;Trier;Deutschland;6.6330848;49.766673;OpenStreetMap;;
Pallien (Trier), Hochschule Trier;Bushaltestelle;Trier;Deutschland;6.6266647;49.7674453;OpenStreetMap;Stadt Trier;network: VRT
Pallien (Trier), Bitburger Straße;Bushaltestelle;Trier;Deutschland;6.6307905;49.7646874;OpenStreetMap;Stadt Trier;network: VRT
Pallien (Trier), Bitburger Straße;Bushaltestelle;Trier;Deutschland;6.6304909;49.7647938;OpenStreetMap;Stadt Trier;network: VRT
Trier, Zurlaubener Ufer;Bushaltestelle;Trier;Deutschland;6.6342487;49.7636729;OpenStreetMap;Stadt Trier;network: VRT
Trier, Bruchhausenstraße;Bushaltestelle;Trier;Deutschland;6.6382545;49.7611174;OpenStreetMap;Stadt Trier;network: VRT
Trier, Nordallee;Bushaltestelle;Trier;Deutschland;6.638503;49.7615951;OpenStreetMap;Stadt Trier;network: VRT
Trier, Nikolaus-Koch-Platz;Bushaltestelle;Trier;Deutschland;6.6380186;49.7570145;OpenStreetMap;Stadt Trier;
Trier, Nikolaus-Koch-Platz;Bushaltestelle;Trier;Deutschland;6.6377669;49.7571466;OpenStreetMap;Stadt Trier;
Trier, Porta-Nigra-Schule;Bushaltestelle;Trier;Deutschland;6.6443447;49.7616716;OpenStreetMap;;
Trier, SWT-Arena;Bushaltestelle;Trier;Deutschland;6.6641498;49.7711341;OpenStreetMap;;wheelchair: yes
Trier, Christophstraße;Bushaltestelle;Trier;Deutschland;6.6454616;49.7591675;OpenStreetMap;;wheelchair: limited
St. Medard (Trier), St. Medard;Bushaltestelle;Trier;Deutschland;6.6283852;49.7309956;OpenStreetMap;;
Trier-Nord, P+R Nord;Bushaltestelle;Trier;Deutschland;6.6689882;49.7726756;OpenStreetMap;;
Euren (Trier), Messepark P+R;Bushaltestelle;Trier;Deutschland;6.6236237;49.739276;OpenStreetMap;;
Euren (Trier), Messepark P+R;Bushaltestelle;Trier;Deutschland;6.6217938;49.7403406;OpenStreetMap;;
Olewig (Trier), Tiergarten;Bushaltestelle;Trier;Deutschland;6.6546694;49.7437684;OpenStreetMap;Stadt Trier;network: VRT
Olewig (Trier), Tiergarten;Bushaltestelle;Trier;Deutschland;6.6541512;49.7438593;OpenStreetMap;Stadt Trier;network: VRT
Olewig (Trier), Kleeburger Weg;Bushaltestelle;Trier;Deutschland;6.6733551;49.7411789;OpenStreetMap;Stadt Trier;network: VRT
Irsch (Trier), Irscher Hof;Bushaltestelle;Trier;Deutschland;6.6796011;49.7343251;OpenStreetMap;Stadt Trier;network: VRT
Trier, Deutschherrenstraße;Bushaltestelle;Trier;Deutschland;6.6357165;49.7608363;OpenStreetMap;Stadt Trier;network: VRT
Trier, Wilhelm-Leuschner-Straße;Bushaltestelle;Trier;Deutschland;6.6469817;49.7679575;OpenStreetMap;Stadt Trier;network: VRT
Heiligkreuz (Trier), Rotbachstraße;Bushaltestelle;Trier;Deutschland;6.6420367;49.7415039;OpenStreetMap;Stadt Trier;network: VRT
Heiligkreuz (Trier), Rotbachstraße;Bushaltestelle;Trier;Deutschland;6.6416846;49.7417376;OpenStreetMap;;
Heiligkreuz (Trier), Rotbachstraße;Bushaltestelle;Trier;Deutschland;6.6416161;49.7417614;OpenStreetMap;Stadt Trier;network: VRT
Weismark (Trier), Kyrianderstraße;Bushaltestelle;Trier;Deutschland;6.6376506;49.7362929;OpenStreetMap;;
Weismark (Trier), Pfahlweiher;Bushaltestelle;Trier;Deutschland;6.6379174;49.726295;OpenStreetMap;;
Weismark (Trier), Kyrianderstraße;Bushaltestelle;Trier;Deutschland;6.637558;49.7361655;OpenStreetMap;;
Weismark (Trier), Am Bildstock;Bushaltestelle;Trier;Deutschland;6.6394704;49.729575;OpenStreetMap;;
Trier, Südallee/Kaiserstraße;Bushaltestelle;Trier;Deutschland;6.6359045;49.7503433;OpenStreetMap;;wheelchair: no
Trier, Südbahnhof;Bushaltestelle;Trier;Deutschland;6.6352815;49.744851;OpenStreetMap;Stadt Trier;network: VRT
Trier, Südbahnhof;Bushaltestelle;Trier;Deutschland;6.6349733;49.7454116;OpenStreetMap;Stadt Trier;network: VRT
Trier, Gambrinusstraße;Bushaltestelle;Trier;Deutschland;6.6378947;49.7441911;OpenStreetMap;;
Trier, Gambrinusstraße;Bushaltestelle;Trier;Deutschland;6.6390802;49.7438349;OpenStreetMap;;
Trier, Rathaus/Stadttheater;Bushaltestelle;Trier;Deutschland;6.6354452;49.7515845;OpenStreetMap;Stadt Trier;network: VRT
Trier, Südallee/Kaiserstraße;Bushaltestelle;Trier;Deutschland;6.6348354;49.7503166;OpenStreetMap;;
Trier-Nord, Castelforte;Bushaltestelle;Trier;Deutschland;6.6595445;49.7715024;OpenStreetMap;Stadt Trier;network: VRT
Weismark (Trier), Cusanusstraße;Bushaltestelle;Trier;Deutschland;6.6389648;49.7317916;OpenStreetMap;;
Weismark (Trier), Joseph-Haydn-Straße;Bushaltestelle;Trier;Deutschland;6.6382232;49.7346286;OpenStreetMap;;
Trier-Nord, Nordbad;Bushaltestelle;Trier;Deutschland;6.6482843;49.769658;OpenStreetMap;Stadt Trier;network: VRT
Trier, St.-Mergener-Straße;Bushaltestelle;Trier;Deutschland;6.6412858;49.7656861;OpenStreetMap;Stadt Trier;network: VRT
Trier-Nord, An der Hospitalsmühle;Bushaltestelle;Trier;Deutschland;6.6536137;49.7711295;OpenStreetMap;Stadt Trier;network: VRT
Trier, Benediktinerstraße;Bushaltestelle;Trier;Deutschland;6.6455307;49.765666;OpenStreetMap;Stadt Trier;network: VRT
Trier, Remigiusstraße;Bushaltestelle;Trier;Deutschland;6.6372481;49.764918;OpenStreetMap;Stadt Trier;network: VRT
Trier, Trier Galerie;Bushaltestelle;Trier;Deutschland;6.637101;49.7556996;OpenStreetMap;Stadt Trier;
Trier, St.-Mergener-Straße;Bushaltestelle;Trier;Deutschland;6.6410947;49.7651716;OpenStreetMap;Stadt Trier;network: VRT
Trier-Nord, Zurmaiener Straße Nord;Bushaltestelle;Trier;Deutschland;6.6589411;49.7721377;OpenStreetMap;Stadt Trier;network: VRT
Trier, Benediktinerstraße;Bushaltestelle;Trier;Deutschland;6.6454367;49.7656097;OpenStreetMap;Stadt Trier;network: VRT
Trier, Nordallee;Bushaltestelle;Trier;Deutschland;6.6383632;49.7616185;OpenStreetMap;Stadt Trier;network: VRT
Weismark (Trier), Pfahlweiher;Bushaltestelle;Trier;Deutschland;6.6377001;49.7261923;OpenStreetMap;;
Trier, Kaiserthermen;Bushaltestelle;Trier;Deutschland;6.6405163;49.7491257;OpenStreetMap;;wheelchair: yes
Trier, Kürenzer Straße;Bushaltestelle;Trier;Deutschland;6.6556526;49.7607257;OpenStreetMap;Stadt Trier;network: VRT
Trier, Kürenzer Straße;Bushaltestelle;Trier;Deutschland;6.6558348;49.7608845;OpenStreetMap;Stadt Trier;network: VRT
Trier, Kaiserthermen;Bushaltestelle;Trier;Deutschland;6.6405251;49.749213;OpenStreetMap;Stadt Trier;network: VRT
Olewig (Trier), Brettenbach;Bushaltestelle;Trier;Deutschland;6.6655912;49.7429471;OpenStreetMap;;
Trier, Wasserweg;Bushaltestelle;Trier;Deutschland;6.6536279;49.7651246;OpenStreetMap;;
Feyen (Trier), Clara-Viebig-Straße;Bushaltestelle;Trier;Deutschland;6.631861;49.7275651;OpenStreetMap;;
Feyen (Trier), Clara-Viebig-Straße;Bushaltestelle;Trier;Deutschland;6.6321091;49.7273887;OpenStreetMap;;
Kernscheid (Trier), Höhenweg 2;Bushaltestelle;Trier;Deutschland;6.6736056;49.7361575;OpenStreetMap;Stadt Trier;network: VRT
Kürenz (Trier), Domänenstraße;Bushaltestelle;Trier;Deutschland;6.6667181;49.7631634;OpenStreetMap;Stadt Trier;network: VRT
Kürenz (Trier), Im Avelertal;Bushaltestelle;Trier;Deutschland;6.6739254;49.7599972;OpenStreetMap;;network: VRT
Kürenz (Trier), Im Avelertal;Bushaltestelle;Trier;Deutschland;6.674148;49.7599035;OpenStreetMap;;network: VRT
Trier, St. Paulin;Bushaltestelle;Trier;Deutschland;6.6511823;49.7638768;OpenStreetMap;;wheelchair: no
Olewig (Trier), Retzgrubenweg;Bushaltestelle;Trier;Deutschland;6.6612221;49.7441114;OpenStreetMap;;
Trier, Franz-Georg-Straße;Bushaltestelle;Trier;Deutschland;6.6563167;49.7631765;OpenStreetMap;Stadt Trier;network: VRT
Pallien (Trier), Römerstraße;Bushaltestelle;Trier;Deutschland;6.6257417;49.7594055;OpenStreetMap;Stadt Trier;network: VRT
Pallien (Trier), Römerstraße;Bushaltestelle;Trier;Deutschland;6.6258301;49.7593754;OpenStreetMap;;
Trier-West, Hohensteinstraße;Bushaltestelle;Trier;Deutschland;6.6220258;49.752402;OpenStreetMap;Stadt Trier;network: VRT
Trier-West, Markusstraße;Bushaltestelle;Trier;Deutschland;6.6225063;49.7541614;OpenStreetMap;Stadt Trier;network: VRT
Trier-West, Steinsweg;Bushaltestelle;Trier;Deutschland;6.6232994;49.7566175;OpenStreetMap;;
Trier-West, Steinsweg;Bushaltestelle;Trier;Deutschland;6.6234991;49.7568268;OpenStreetMap;Stadt Trier;network: VRT
Trier-West, Steinsweg;Bushaltestelle;Trier;Deutschland;6.6234022;49.7566112;OpenStreetMap;Stadt Trier;network: VRT
Pallien (Trier), Römerstraße;Bushaltestelle;Trier;Deutschland;6.625683;49.7597704;OpenStreetMap;Stadt Trier;network: VRT
Pallien (Trier), Magnerichstraße;Bushaltestelle;Trier;Deutschland;6.6245817;49.7611272;OpenStreetMap;Stadt Trier;network: VRT
Pallien (Trier), Villa Reverchon;Bushaltestelle;Trier;Deutschland;6.6259198;49.7629068;OpenStreetMap;Stadt Trier;network: VRT
Pallien (Trier), Auf der Jüngt;Bushaltestelle;Trier;Deutschland;6.6254667;49.7646809;OpenStreetMap;Stadt Trier;network: VRT
Trier, Hauptbahnhof;Bushaltestelle;Trier;Deutschland;6.6516162;49.7573788;OpenStreetMap;;wheelchair: limited
Feyen (Trier), Graf-Reginar-Straße;Bushaltestelle;Trier;Deutschland;6.6257845;49.7230114;OpenStreetMap;;
Kürenz (Trier), Arnoldistraße;Bushaltestelle;Trier;Deutschland;6.6635807;49.7614483;OpenStreetMap;;
Kürenz (Trier), Arnoldistraße;Bushaltestelle;Trier;Deutschland;6.6641492;49.7618169;OpenStreetMap;;
Trier, Töpferstraße;Bushaltestelle;Trier;Deutschland;6.6334244;49.7421291;OpenStreetMap;;
Trier, St. Matthias;Bushaltestelle;Trier;Deutschland;6.6316239;49.7394721;OpenStreetMap;;
Euren (Trier), Messepark P+R;Bushaltestelle;Trier;Deutschland;6.6236753;49.7393796;OpenStreetMap;;
St. Medard (Trier), St. Medard;Bushaltestelle;Trier;Deutschland;6.628297;49.7309902;OpenStreetMap;;
Trier, St. Matthias;Bushaltestelle;Trier;Deutschland;6.6319075;49.7398152;OpenStreetMap;;
Trier, Töpferstraße;Bushaltestelle;Trier;Deutschland;6.6331995;49.7416783;OpenStreetMap;;
Trier, Südbahnhof;Bushaltestelle;Trier;Deutschland;6.634375;49.74411;OpenStreetMap;;
Trier, Balduinsbrunnen/Hauptbahnhof;Bushaltestelle;Trier;Deutschland;6.6496712;49.7579193;OpenStreetMap;;
Feyen (Trier), Zum Römersprudel;Bushaltestelle;Trier;Deutschland;6.6217317;49.7205291;OpenStreetMap;;
Feyen (Trier), Adastraße;Bushaltestelle;Trier;Deutschland;6.6233598;49.722727;OpenStreetMap;SWT;
Feyen (Trier), Graf-Reginar-Straße;Bushaltestelle;Trier;Deutschland;6.6262633;49.7232403;OpenStreetMap;SWT;
Pallien (Trier), Hochschule Trier;Bushaltestelle;Trier;Deutschland;6.6261452;49.7684271;OpenStreetMap;;
Trier, Feldstraße/Mutterhaus;Bushaltestelle;Trier;Deutschland;6.6320997;49.7523445;OpenStreetMap;;
Trier, Karl-Marx-Haus;Bushaltestelle;Trier;Deutschland;6.6355821;49.7536805;OpenStreetMap;;
Trier, Stadtbibliothek;Bushaltestelle;Trier;Deutschland;6.6410011;49.7512931;OpenStreetMap;;
Trier, Stadtbibliothek;Bushaltestelle;Trier;Deutschland;6.6411731;49.7517946;OpenStreetMap;;
Trier, Mustorstraße;Bushaltestelle;Trier;Deutschland;6.645046;49.7539166;OpenStreetMap;;
Trier, Mustorstraße;Bushaltestelle;Trier;Deutschland;6.6455064;49.753967;OpenStreetMap;;
Trier, Mustorstraße;Bushaltestelle;Trier;Deutschland;6.6454753;49.7539191;OpenStreetMap;;
Trier, SWT Stadtwerke;Bushaltestelle;Trier;Deutschland;6.6486495;49.7559749;OpenStreetMap;;
Trier, SWT Stadtwerke;Bushaltestelle;Trier;Deutschland;6.6474958;49.7553069;OpenStreetMap;;
Pallien (Trier), Augustastraße;Bushaltestelle;Trier;Deutschland;6.6270988;49.7609911;OpenStreetMap;;
Pallien (Trier), Augustastraße;Bushaltestelle;Trier;Deutschland;6.6277452;49.7615335;OpenStreetMap;;
Pallien (Trier), Römerstraße;Bushaltestelle;Trier;Deutschland;6.62559;49.7593797;OpenStreetMap;;
Trier-West, Markusstraße;Bushaltestelle;Trier;Deutschland;6.622464;49.7541621;OpenStreetMap;;
Trier-West, Trierweilerweg;Bushaltestelle;Trier;Deutschland;6.6215922;49.7514824;OpenStreetMap;;
Heiligkreuz (Trier), Trevererstraße;Bushaltestelle;Trier;Deutschland;6.6477692;49.7339508;OpenStreetMap;;
Heiligkreuz (Trier), Trevererstraße;Bushaltestelle;Trier;Deutschland;6.647851;49.7338191;OpenStreetMap;;
Heiligkreuz (Trier), Werdingstraße;Bushaltestelle;Trier;Deutschland;6.6487147;49.7360077;OpenStreetMap;;
Heiligkreuz (Trier), Werdingstraße;Bushaltestelle;Trier;Deutschland;6.6486785;49.7361672;OpenStreetMap;;
Heiligkreuz (Trier), Adolph-Kolping-Straße;Bushaltestelle;Trier;Deutschland;6.6481232;49.7375471;OpenStreetMap;;
Heiligkreuz (Trier), Adolph-Kolping-Straße;Bushaltestelle;Trier;Deutschland;6.6487232;49.7370089;OpenStreetMap;;
Heiligkreuz (Trier), Adolph-Kolping-Straße;Bushaltestelle;Trier;Deutschland;6.6488073;49.7370402;OpenStreetMap;;
Heiligkreuz (Trier), Ludwig-Simon-Straße;Bushaltestelle;Trier;Deutschland;6.6458206;49.7377196;OpenStreetMap;;
Heiligkreuz (Trier), Straßburger Allee;Bushaltestelle;Trier;Deutschland;6.6415152;49.7394623;OpenStreetMap;;
Heiligkreuz (Trier), Straßburger Allee;Bushaltestelle;Trier;Deutschland;6.6415586;49.7395059;OpenStreetMap;;
Heiligkreuz (Trier), Franz-Buß-Straße;Bushaltestelle;Trier;Deutschland;6.6437003;49.7376138;OpenStreetMap;;
Heiligkreuz (Trier), Franz-Buß-Straße;Bushaltestelle;Trier;Deutschland;6.6439143;49.7381868;OpenStreetMap;;
Heiligkreuz (Trier), An der Ziegelei;Bushaltestelle;Trier;Deutschland;6.6458729;49.7394802;OpenStreetMap;;
Heiligkreuz (Trier), Straßburger Allee;Bushaltestelle;Trier;Deutschland;6.6435561;49.7410525;OpenStreetMap;;
Heiligkreuz (Trier), Bernhardstraße;Bushaltestelle;Trier;Deutschland;6.6429412;49.7453827;OpenStreetMap;;
Heiligkreuz (Trier), Metzer Allee;Bushaltestelle;Trier;Deutschland;6.6433785;49.7469502;OpenStreetMap;;
Heiligkreuz (Trier), Metzer Allee;Bushaltestelle;Trier;Deutschland;6.6429154;49.7477359;OpenStreetMap;;
Heiligkreuz (Trier), Bernhardstraße;Bushaltestelle;Trier;Deutschland;6.6438814;49.7456708;OpenStreetMap;;
Trier, Pferdemarkt;Bushaltestelle;Trier;Deutschland;6.6391164;49.7593317;OpenStreetMap;;
Trier, Kaiserthermen;Bushaltestelle;Trier;Deutschland;6.6404406;49.7501921;OpenStreetMap;;
Trier, Hochwaldstraße;Bushaltestelle;Trier;Deutschland;6.66141;49.7697661;OpenStreetMap;;
Trier-Nord, P+R Nord;Bushaltestelle;Trier;Deutschland;6.669589;49.7727561;OpenStreetMap;;
Trier-Nord, P+R Nord;Bushaltestelle;Trier;Deutschland;6.6695654;49.772806;OpenStreetMap;;
Trier-Nord, Rudolf-Diesel-Straße;Bushaltestelle;Trier;Deutschland;6.6732475;49.7740622;OpenStreetMap;;
Trier-Nord, Rudolf-Diesel-Straße;Bushaltestelle;Trier;Deutschland;6.6732274;49.7740925;OpenStreetMap;Stadt Trier;network: VRT
Trier-Nord, Rudolf-Diesel-Straße;Bushaltestelle;Trier;Deutschland;6.6724763;49.7738981;OpenStreetMap;;
Trier-Nord, Handwerkskammer;Bushaltestelle;Trier;Deutschland;6.6793121;49.7754153;OpenStreetMap;Stadt Trier;network: VRT
Trier, Franz-Georg-Straße;Bushaltestelle;Trier;Deutschland;6.6583995;49.7641659;OpenStreetMap;;
Trier, Franz-Georg-Straße;Bushaltestelle;Trier;Deutschland;6.6588676;49.7644243;OpenStreetMap;;
Trier-Nord, Nells Park/Parkstraße;Bushaltestelle;Trier;Deutschland;6.6660651;49.7708566;OpenStreetMap;;
Pallien (Trier), Bonner Straße;Bushaltestelle;Trier;Deutschland;6.6306712;49.7649045;OpenStreetMap;;
Pallien (Trier), Palliener Straße;Bushaltestelle;Trier;Deutschland;6.6330144;49.7667072;OpenStreetMap;;
Pallien (Trier), Palliener Straße;Bushaltestelle;Trier;Deutschland;6.6332569;49.7668787;OpenStreetMap;;
Biewer (Trier), Süd;Bushaltestelle;Trier;Deutschland;6.6627185;49.7779644;OpenStreetMap;;
Biewer (Trier), Donaustraße;Bushaltestelle;Trier;Deutschland;6.6644417;49.7792902;OpenStreetMap;;
Biewer (Trier), Donaustraße;Bushaltestelle;Trier;Deutschland;6.6646737;49.7793522;OpenStreetMap;;
Kernscheid (Trier), Höhenweg 1;Bushaltestelle;Trier;Deutschland;6.6696379;49.738884;OpenStreetMap;;
Olewig (Trier), Caspar-Olevian-Straße;Bushaltestelle;Trier;Deutschland;6.6655155;49.7399463;OpenStreetMap;;
Olewig (Trier), Auf der Hill;Bushaltestelle;Trier;Deutschland;6.6637015;49.7412575;OpenStreetMap;;
Olewig (Trier), Auf der Hill;Bushaltestelle;Trier;Deutschland;6.6636506;49.7412263;OpenStreetMap;;
Pallien (Trier), Sankt Urban;Bushaltestelle;Trier;Deutschland;6.6390889;49.7702725;OpenStreetMap;;
Olewig (Trier), St.-Anna-Straße;Bushaltestelle;Trier;Deutschland;6.6571569;49.7425956;OpenStreetMap;;
Olewig (Trier), Caspar-Olevian-Straße;Bushaltestelle;Trier;Deutschland;6.6653229;49.7401134;OpenStreetMap;;
Heiligkreuz (Trier), Am Herrenbrüchen;Bushaltestelle;Trier;Deutschland;6.6450516;49.7432062;OpenStreetMap;;
Heiligkreuz (Trier), Hans-Böckler-Allee;Bushaltestelle;Trier;Deutschland;6.6454142;49.7414733;OpenStreetMap;;wheelchair: yes
Heiligkreuz (Trier), Peter-Wust-Straße;Bushaltestelle;Trier;Deutschland;6.6492686;49.7392623;OpenStreetMap;;
Heiligkreuz (Trier), Karlsweg;Bushaltestelle;Trier;Deutschland;6.6515458;49.7353412;OpenStreetMap;;
Heiligkreuz (Trier), Karlsweg;Bushaltestelle;Trier;Deutschland;6.6514653;49.7363033;OpenStreetMap;;
Mariahof (Trier), Wolkerstraße;Bushaltestelle;Trier;Deutschland;6.6566178;49.7275734;OpenStreetMap;;
Mariahof (Trier), Anheierstraße;Bushaltestelle;Trier;Deutschland;6.6601704;49.7313425;OpenStreetMap;;wheelchair: yes
Mariahof (Trier), Anheierstraße;Bushaltestelle;Trier;Deutschland;6.6599907;49.7311501;OpenStreetMap;;wheelchair: yes
Mariahof (Trier), Am Mariahof;Bushaltestelle;Trier;Deutschland;6.6592571;49.7334231;OpenStreetMap;;
Mariahof (Trier), Am Mariahof;Bushaltestelle;Trier;Deutschland;6.6590117;49.7334394;OpenStreetMap;;
Mariahof (Trier), Wolfsberg;Bushaltestelle;Trier;Deutschland;6.6530514;49.7292437;OpenStreetMap;;
Mariahof (Trier), Wolfsberg;Bushaltestelle;Trier;Deutschland;6.6527297;49.7301155;OpenStreetMap;;
Mariahof (Trier), Trebetastraße;Bushaltestelle;Trier;Deutschland;6.6550367;49.7271295;OpenStreetMap;;wheelchair: yes
Mariahof (Trier), Wolkerstraße;Bushaltestelle;Trier;Deutschland;6.6580233;49.7285261;OpenStreetMap;;
Heiligkreuz (Trier), Karlsweg;Bushaltestelle;Trier;Deutschland;6.6511595;49.7359427;OpenStreetMap;;wheelchair: yes
Heiligkreuz (Trier), Karlsweg;Bushaltestelle;Trier;Deutschland;6.65113;49.7358612;OpenStreetMap;;
Heiligkreuz (Trier), Adolph-Kolping-Straße;Bushaltestelle;Trier;Deutschland;6.6480572;49.7375216;OpenStreetMap;;
Weismark (Trier), Am Bildstock;Bushaltestelle;Trier;Deutschland;6.6393988;49.7295713;OpenStreetMap;Stadt Trier;network: VRT
Weismark (Trier), Rubenstraße;Bushaltestelle;Trier;Deutschland;6.63674;49.7326333;OpenStreetMap;;
Weismark (Trier), Rubenstraße;Bushaltestelle;Trier;Deutschland;6.6369894;49.732694;OpenStreetMap;;
Weismark (Trier), Händelstraße;Bushaltestelle;Trier;Deutschland;6.6332732;49.7314596;OpenStreetMap;;
Weismark (Trier), Händelstraße;Bushaltestelle;Trier;Deutschland;6.6335106;49.731509;OpenStreetMap;;
Feyen (Trier), Scheffelstraße;Bushaltestelle;Trier;Deutschland;6.632663;49.7288433;OpenStreetMap;;
Feyen (Trier), Scheffelstraße;Bushaltestelle;Trier;Deutschland;6.6317725;49.7282764;OpenStreetMap;;
Trier-West, Trierweilerweg;Bushaltestelle;Trier;Deutschland;6.6215505;49.751514;OpenStreetMap;;
Trier-West, Trierweilerweg;Bushaltestelle;Trier;Deutschland;6.6211084;49.7513123;OpenStreetMap;;
Trier, Treviris;Bushaltestelle;Trier;Deutschland;6.6407009;49.758195;OpenStreetMap;;wheelchair: yes
Trier Hbf, Kürenzer Straße;Bushaltestelle;Trier;Deutschland;6.6531645;49.7581976;OpenStreetMap;;
Trier, Hauptbahnhof;Bushaltestelle;Trier;Deutschland;6.6520561;49.7579797;OpenStreetMap;;wheelchair: no
Trier, Hauptbahnhof;Bushaltestelle;Trier;Deutschland;6.652509;49.7577129;OpenStreetMap;;wheelchair: limited
Trier, Hauptbahnhof;Bushaltestelle;Trier;Deutschland;6.6523544;49.7577423;OpenStreetMap;;wheelchair: limited
Trier, Hauptbahnhof;Bushaltestelle;Trier;Deutschland;6.651987;49.7573412;OpenStreetMap;;wheelchair: limited
Trier, Hauptbahnhof;Bushaltestelle;Trier;Deutschland;6.6522109;49.7577813;OpenStreetMap;;wheelchair: limited
Trier, Hauptbahnhof;Bushaltestelle;Trier;Deutschland;6.6518126;49.757349;OpenStreetMap;;wheelchair: limited
Pallien (Trier), Magnerichstraße;Bushaltestelle;Trier;Deutschland;6.6244474;49.7612545;OpenStreetMap;;
Trier, Zurlaubener Ufer;Bushaltestelle;Trier;Deutschland;6.6342992;49.7646122;OpenStreetMap;;
Trier-Nord, Nells Park;Bushaltestelle;Trier;Deutschland;6.6672397;49.7716463;OpenStreetMap;;
Trier, Treviris;Bushaltestelle;Trier;Deutschland;6.6408858;49.7588772;OpenStreetMap;;wheelchair: yes
Trier, Irminenfreihof;Bushaltestelle;Trier;Deutschland;6.630888;49.7585693;OpenStreetMap;;
Trier, Irminenfreihof;Bushaltestelle;Trier;Deutschland;6.6310071;49.7585393;OpenStreetMap;;network: VRT
Trier, Dasbachstraße Süd;Bushaltestelle;Trier;Deutschland;6.6688299;49.768654;OpenStreetMap;;
Trier, Konstantin Basilika;Bushaltestelle;Trier;Deutschland;6.6429841;49.7540405;OpenStreetMap;;
Trier, Konstantin Basilika;Bushaltestelle;Trier;Deutschland;6.6428809;49.7540735;OpenStreetMap;;
Trier, Theodor-Heuss-Allee;Bushaltestelle;Trier;Deutschland;6.6463409;49.759313;OpenStreetMap;;
Trier, Theodor-Heuss-Allee;Bushaltestelle;Trier;Deutschland;6.6464873;49.7591953;OpenStreetMap;Stadt Trier;"wheelchair: yes; network: VRT"
Trier, Theodor-Heuss-Allee;Bushaltestelle;Trier;Deutschland;6.6460683;49.7593654;OpenStreetMap;Stadt Trier;"wheelchair: yes; network: VRT"
Trier, Balduinsbrunnen/Hauptbahnhof;Bushaltestelle;Trier;Deutschland;6.6499592;49.7579035;OpenStreetMap;;wheelchair: yes
Trier, Balduinsbrunnen/Hauptbahnhof;Bushaltestelle;Trier;Deutschland;6.6498975;49.7578315;OpenStreetMap;;
Trier, Hauptbahnhof;Bushaltestelle;Trier;Deutschland;6.6522538;49.7575273;OpenStreetMap;;
Trier, Hauptbahnhof;Bushaltestelle;Trier;Deutschland;6.6521801;49.7575504;OpenStreetMap;;wheelchair: limited
Trier, Hauptbahnhof;Bushaltestelle;Trier;Deutschland;6.6522982;49.757573;OpenStreetMap;;
Trier, Hauptbahnhof;Bushaltestelle;Trier;Deutschland;6.6523504;49.7575526;OpenStreetMap;;
Trier, Hauptbahnhof;Bushaltestelle;Trier;Deutschland;6.6520252;49.7579403;OpenStreetMap;;
Trier, Hauptbahnhof;Bushaltestelle;Trier;Deutschland;6.6519391;49.7577182;OpenStreetMap;;
Trier, Rudolf-Diesel-Straße Süd;Bushaltestelle;Trier;Deutschland;6.6765413;49.7708151;OpenStreetMap;;
Trier, Rudolf-Diesel-Straße Süd;Bushaltestelle;Trier;Deutschland;6.6765694;49.7707848;OpenStreetMap;;
Trier, Dasbachstraße Süd;Bushaltestelle;Trier;Deutschland;6.6687964;49.7686895;OpenStreetMap;;
Trier, Am Keltenweg Süd;Bushaltestelle;Trier;Deutschland;6.6628231;49.7645369;OpenStreetMap;;
Trier, Rudolf-Diesel-Straße Süd;Bushaltestelle;Trier;Deutschland;6.6765849;49.7707268;OpenStreetMap;;
Trier, Dasbachstraße Süd;Bushaltestelle;Trier;Deutschland;6.6699377;49.7689399;OpenStreetMap;;
Trier, Dasbachstraße Süd;Bushaltestelle;Trier;Deutschland;6.6699833;49.7688931;OpenStreetMap;;
Trier, Am Keltenweg Süd;Bushaltestelle;Trier;Deutschland;6.6629953;49.7645258;OpenStreetMap;;
Trier, Am Keltenweg Süd;Bushaltestelle;Trier;Deutschland;6.6630537;49.7644832;OpenStreetMap;;
Feyen (Trier), Buntspechtweg;Bushaltestelle;Trier;Deutschland;6.6311758;49.7208447;OpenStreetMap;;
Feyen (Trier), Albert-Camus-Allee;Bushaltestelle;Trier;Deutschland;6.6314312;49.7229052;OpenStreetMap;;
Feyen (Trier), Albert-Camus-Allee;Bushaltestelle;Trier;Deutschland;6.630939;49.7226195;OpenStreetMap;;
Trier, Pacelliufer;Bushaltestelle;Trier;Deutschland;6.6282088;49.7452535;OpenStreetMap;;
Trier, SWT-Arena;Bushaltestelle;Trier;Deutschland;6.6646054;49.7711694;OpenStreetMap;;
Feyen (Trier), Clara-Viebig-Straße;Bushaltestelle;Trier;Deutschland;6.6321324;49.7274189;OpenStreetMap;;
Weismark (Trier), Pfahlweiher;Bushaltestelle;Trier;Deutschland;6.637843;49.7262868;OpenStreetMap;;network: VRT
Pallien (Trier), Augustastraße;Bushaltestelle;Trier;Deutschland;6.6276453;49.7615638;OpenStreetMap;;
Pallien (Trier), Augustastraße;Bushaltestelle;Trier;Deutschland;6.62714;49.7609566;OpenStreetMap;;
Weismark (Trier), Im Reutersfeld;Bushaltestelle;Trier;Deutschland;6.634552;49.7265681;OpenStreetMap;;
Weismark (Trier), Im Reutersfeld;Bushaltestelle;Trier;Deutschland;6.6350394;49.7263154;OpenStreetMap;;
Weismark (Trier), Kyrianderstraße;Bushaltestelle;Trier;Deutschland;6.637591;49.7362775;OpenStreetMap;Stadt Trier;network: VRT
Weismark (Trier), Joseph-Haydn-Straße;Bushaltestelle;Trier;Deutschland;6.6382908;49.7346365;OpenStreetMap;Stadt Trier;network: VRT
Weismark (Trier), Cusanusstraße;Bushaltestelle;Trier;Deutschland;6.6390333;49.7317943;OpenStreetMap;;
Feyen (Trier), Graf-Reginar-Straße;Bushaltestelle;Trier;Deutschland;6.6262985;49.723192;OpenStreetMap;;
Feyen (Trier), Graf-Reginar-Straße;Bushaltestelle;Trier;Deutschland;6.625781;49.7230249;OpenStreetMap;;
Trier, Gilbertstraße;Bushaltestelle;Trier;Deutschland;6.6360529;49.7476695;OpenStreetMap;Stadt Trier;"wheelchair: yes; network: VRT"
Olewig (Trier), Caspar-Olevian-Straße;Bushaltestelle;Trier;Deutschland;6.6655614;49.7399915;OpenStreetMap;;
Olewig (Trier), Kleeburger Weg;Bushaltestelle;Trier;Deutschland;6.6731797;49.7403309;OpenStreetMap;Stadt Trier;network: VRT
Heiligkreuz (Trier), Werdingstraße;Bushaltestelle;Trier;Deutschland;6.6486463;49.7360129;OpenStreetMap;;
Heiligkreuz (Trier), Trevererstraße;Bushaltestelle;Trier;Deutschland;6.6477882;49.7338389;OpenStreetMap;;
Mariahof (Trier), Wolfsberg;Bushaltestelle;Trier;Deutschland;6.6507744;49.7296689;OpenStreetMap;;
Mariahof (Trier), Wolfsberg;Bushaltestelle;Trier;Deutschland;6.6507317;49.7297111;OpenStreetMap;;
Mariahof (Trier), Anheierstraße;Bushaltestelle;Trier;Deutschland;6.6600993;49.7313417;OpenStreetMap;;
Weismark (Trier), Im Reutersfeld;Bushaltestelle;Trier;Deutschland;6.6345114;49.7265287;OpenStreetMap;;
Heiligkreuz (Trier), Straßburger Allee;Bushaltestelle;Trier;Deutschland;6.6409806;49.7392435;OpenStreetMap;;
Pallien (Trier), Villa Reverchon;Bushaltestelle;Trier;Deutschland;6.6258875;49.7629274;OpenStreetMap;;
Pallien (Trier), Villa Reverchon;Bushaltestelle;Trier;Deutschland;6.6259692;49.7628781;OpenStreetMap;;
Trier, An der Jugendherberge;Bushaltestelle;Trier;Deutschland;6.6403637;49.7672077;OpenStreetMap;;
Trier, An der Jugendherberge;Bushaltestelle;Trier;Deutschland;6.6403971;49.7671659;OpenStreetMap;;
Trier, An der Jugendherberge;Bushaltestelle;Trier;Deutschland;6.6401745;49.7674535;OpenStreetMap;;
Trier, Zurlaubener Ufer;Bushaltestelle;Trier;Deutschland;6.6373462;49.7660658;OpenStreetMap;;
Trier, Zurlaubener Ufer;Bushaltestelle;Trier;Deutschland;6.6361284;49.7639409;OpenStreetMap;;
Trier, Barbarathermen;Bushaltestelle;Trier;Deutschland;6.6308257;49.7510486;OpenStreetMap;;
Trier, Barbarathermen;Bushaltestelle;Trier;Deutschland;6.6307932;49.750984;OpenStreetMap;;
Trier, Zurlaubener Ufer;Bushaltestelle;Trier;Deutschland;6.6360819;49.7639594;OpenStreetMap;;
Trier, Zurlaubener Ufer;Bushaltestelle;Trier;Deutschland;6.637416;49.7660296;OpenStreetMap;;
Trier-Nord, Nordbad/Moselstadion;Bushaltestelle;Trier;Deutschland;6.6452379;49.7686164;OpenStreetMap;;
Trier-Nord, Nordbad/Moselstadion;Bushaltestelle;Trier;Deutschland;6.6452426;49.7685899;OpenStreetMap;;
Trier, An der Jugendherberge;Bushaltestelle;Trier;Deutschland;6.6401939;49.7674031;OpenStreetMap;;
St. Medard (Trier), Konzer Straße;Bushaltestelle;Trier;Deutschland;6.6290796;49.7328704;OpenStreetMap;;
St. Medard (Trier), Konzer Straße;Bushaltestelle;Trier;Deutschland;6.6296832;49.7333965;OpenStreetMap;;
St. Medard (Trier), Konzer Straße;Bushaltestelle;Trier;Deutschland;6.6297391;49.7333961;OpenStreetMap;;
St. Medard (Trier), Im Schammat;Bushaltestelle;Trier;Deutschland;6.6301283;49.73599;OpenStreetMap;;
St. Medard (Trier), Im Schammat;Bushaltestelle;Trier;Deutschland;6.6295351;49.7361906;OpenStreetMap;;
St. Medard (Trier), Im Schammat;Bushaltestelle;Trier;Deutschland;6.6295657;49.7362318;OpenStreetMap;;
Feyen (Trier), Buntspechtweg;Bushaltestelle;Trier;Deutschland;6.6311703;49.720797;OpenStreetMap;;
Feyen (Trier), Buntspechtweg;Bushaltestelle;Trier;Deutschland;6.6312253;49.7208438;OpenStreetMap;;
Feyen (Trier), Buntspechtweg;Bushaltestelle;Trier;Deutschland;6.6311261;49.7207996;OpenStreetMap;;
Feyen (Trier), Albert-Camus-Allee;Bushaltestelle;Trier;Deutschland;6.631513;49.7228839;OpenStreetMap;;
Feyen (Trier), Albert-Camus-Allee;Bushaltestelle;Trier;Deutschland;6.6309028;49.7226841;OpenStreetMap;;
Heiligkreuz (Trier), An der Ziegelei;Bushaltestelle;Trier;Deutschland;6.6465097;49.7398813;OpenStreetMap;;wheelchair: yes
Heiligkreuz (Trier), An der Ziegelei;Bushaltestelle;Trier;Deutschland;6.6463174;49.7398853;OpenStreetMap;;wheelchair: yes
Heiligkreuz (Trier), An der Ziegelei;Bushaltestelle;Trier;Deutschland;6.6463871;49.7398778;OpenStreetMap;Stadt Trier;network: VRT
Feyen (Trier), Pellinger Straße;Bushaltestelle;Trier;Deutschland;6.6312936;49.7254412;OpenStreetMap;;
Feyen (Trier), Estricher Weg;Bushaltestelle;Trier;Deutschland;6.6294926;49.7267636;OpenStreetMap;Stadt Trier;network: VRT
Trier West;Bushaltestelle;Trier;Deutschland;6.6236424;49.7517991;OpenStreetMap;;ref: 2
Trier West;Bushaltestelle;Trier;Deutschland;6.623468;49.7510973;OpenStreetMap;;ref: 1
Olewig (Trier), Hunsrückstraße;Bushaltestelle;Trier;Deutschland;6.6696394;49.7417366;OpenStreetMap;;wheelchair: yes
Trier Hbf;Bahnhof;Trier;Deutschland;6.6519999;49.7569658;OpenStreetMap;DB InfraGO AG;wheelchair: yes
Trier Süd;Bahnhof;Trier;Deutschland;6.6364657;49.7444073;OpenStreetMap;"DB Netz AG;DB Station&Service AG";wheelchair: no
Trier West;Bahnhof;Trier;Deutschland;6.6235851;49.7513983;OpenStreetMap;DB InfraGO AG;
Trier-Pallien;Bahnhof;Trier;Deutschland;6.6298601;49.7639132;OpenStreetMap;DB InfraGO AG;
Parkplatz 268991469;Parkplatz;Trier;Deutschland;6.6568638;49.7714748;OpenStreetMap;;wheelchair: yes
Parkplatz 282041449;Parkplatz;Trier;Deutschland;6.6458766;49.7488643;OpenStreetMap;;
Parkplatz 330867330;Parkplatz;Trier;Deutschland;6.6544689;49.7490472;OpenStreetMap;;
Parkplatz 330867332;Parkplatz;Trier;Deutschland;6.6547711;49.7493595;OpenStreetMap;;
Parkplatz 502885061;Parkplatz;Trier;Deutschland;6.6326509;49.7492424;OpenStreetMap;;capacity: 100
Parkplatz 1419988654;Parkplatz;Trier;Deutschland;6.6787285;49.7752249;OpenStreetMap;;fee: no
Parkplatz 1419988663;Parkplatz;Trier;Deutschland;6.6799125;49.7752711;OpenStreetMap;;fee: no
Parkplatz 1444919774;Parkplatz;Trier;Deutschland;6.6631716;49.7794837;OpenStreetMap;;
Parkplatz 1463823907;Parkplatz;Trier;Deutschland;6.6212381;49.7698136;OpenStreetMap;;fee: no
Parkplatz 2907684308;Parkplatz;Trier;Deutschland;6.6592904;49.7711114;OpenStreetMap;;"capacity: 2; fee: no"
Parkplatz 3428656477;Parkplatz;Trier;Deutschland;6.6216872;49.7675159;OpenStreetMap;;fee: no
Parkplatz 4933434104;Parkplatz;Trier;Deutschland;6.6484936;49.7662076;OpenStreetMap;;"capacity: 25; fee: no"
Parkplatz 8095805624;Parkplatz;Trier;Deutschland;6.6379884;49.7534522;OpenStreetMap;;
Parkplatz 8844225775;Parkplatz;Trier;Deutschland;6.6260044;49.7285166;OpenStreetMap;;capacity: 20
Parkplatz 9340809561;Parkplatz;Trier;Deutschland;6.6380884;49.7541255;OpenStreetMap;;capacity: 2
Parkplatz 9544224191;Parkplatz;Trier;Deutschland;6.6249806;49.7660051;OpenStreetMap;;fee: no
Parkplatz 9960743844;Parkplatz;Trier;Deutschland;6.6426939;49.7672437;OpenStreetMap;;
Parkplatz 10124703130;Parkplatz;Trier;Deutschland;6.6304193;49.7245476;OpenStreetMap;;
Parkplatz 11610803685;Parkplatz;Trier;Deutschland;6.641239;49.7527607;OpenStreetMap;;
Parkplatz 12229676404;Parkplatz;Trier;Deutschland;6.6534889;49.7465871;OpenStreetMap;;
Parkplatz 17067740;Parkplatz;Trier;Deutschland;6.6773081;49.7537748;OpenStreetMap;;
Parkplatz 22898578;Parkplatz;Trier;Deutschland;6.6773037;49.749485;OpenStreetMap;;"fee: no; wheelchair: yes"
Parkplatz 22898582;Parkplatz;Trier;Deutschland;6.6777204;49.7514625;OpenStreetMap;;fee: no
Parkplatz 23372552;Parkplatz;Trier;Deutschland;6.6413545;49.7508529;OpenStreetMap;;"fee: yes; wheelchair: yes"
Kundenparkplatz Kaufland;Parkplatz;Trier;Deutschland;6.6241636;49.7544593;OpenStreetMap;;wheelchair: yes
Parkplatz 23381713;Parkplatz;Trier;Deutschland;6.6230619;49.753436;OpenStreetMap;;wheelchair: yes
P2;Parkplatz;Trier;Deutschland;6.6257772;49.7683357;OpenStreetMap;;
P3;Parkplatz;Trier;Deutschland;6.6273648;49.7691165;OpenStreetMap;;
Parkplatz 25661441;Parkplatz;Trier;Deutschland;6.6262595;49.7753875;OpenStreetMap;;
Parkplatz 26412436;Parkplatz;Trier;Deutschland;6.667485;49.7547232;OpenStreetMap;;fee: no
Parkplatz 26495405;Parkplatz;Trier;Deutschland;6.6402002;49.7517168;OpenStreetMap;;"capacity: 26; fee: yes; wheelchair: no"
Parkplatz 26573343;Parkplatz;Trier;Deutschland;6.6777691;49.7534218;OpenStreetMap;;
Parkplatz 26682806;Parkplatz;Trier;Deutschland;6.6770308;49.7485944;OpenStreetMap;;fee: no
Parkplatz 27060980;Parkplatz;Trier;Deutschland;6.6336037;49.7518244;OpenStreetMap;;"fee: yes; wheelchair: yes"
Parkplatz 27080802;Parkplatz;Trier;Deutschland;6.6517402;49.7751159;OpenStreetMap;;fee: no
Parkplatz 28719181;Parkplatz;Trier;Deutschland;6.6682205;49.7556173;OpenStreetMap;;"fee: no; wheelchair: yes"
Parkplatz 29281558;Parkplatz;Trier;Deutschland;6.6758343;49.7509278;OpenStreetMap;;"fee: no; wheelchair: yes"
Besucher Mutterhaus Mitte Trier;Parkplatz;Trier;Deutschland;6.6320389;49.7535959;OpenStreetMap;;"fee: yes; wheelchair: yes"
Moselauen;Parkplatz;Trier;Deutschland;6.6233686;49.7384536;OpenStreetMap;;fee: no
Moselauen;Parkplatz;Trier;Deutschland;6.6236696;49.7389059;OpenStreetMap;;
In den Moselauen;Parkplatz;Trier;Deutschland;6.6249549;49.7385539;OpenStreetMap;;
Moselauen;Parkplatz;Trier;Deutschland;6.6248433;49.7397626;OpenStreetMap;;
Parkplatz 31660536;Parkplatz;Trier;Deutschland;6.6420136;49.7296503;OpenStreetMap;;fee: no
Parkplatz 31660537;Parkplatz;Trier;Deutschland;6.643266;49.7293885;OpenStreetMap;;"fee: no; wheelchair: yes"
Parkplatz 31660538;Parkplatz;Trier;Deutschland;6.6429658;49.7288655;OpenStreetMap;;fee: no
Parkplatz 31660539;Parkplatz;Trier;Deutschland;6.6434659;49.7274988;OpenStreetMap;;fee: no
Parkplatz 31660540;Parkplatz;Trier;Deutschland;6.6449801;49.7279655;OpenStreetMap;;
Parkplatz 31660632;Parkplatz;Trier;Deutschland;6.643223;49.7426967;OpenStreetMap;;"fee: no; wheelchair: yes"
Parkplatz 31660633;Parkplatz;Trier;Deutschland;6.6355815;49.7489315;OpenStreetMap;;"fee: no; wheelchair: yes"
Parkplatz 31681149;Parkplatz;Trier;Deutschland;6.6292275;49.750999;OpenStreetMap;;"capacity: 25; fee: yes"
Abteiplatz;Parkplatz;Trier;Deutschland;6.630463;49.7386814;OpenStreetMap;;"fee: yes; wheelchair: yes"
Parkplatz 32134291;Parkplatz;Trier;Deutschland;6.6311545;49.7413863;OpenStreetMap;;
Parkplatz 34100095;Parkplatz;Trier;Deutschland;6.6583841;49.7284042;OpenStreetMap;;fee: no
Parkplatz 34754715;Parkplatz;Trier;Deutschland;6.6433914;49.7438085;OpenStreetMap;;
Parkplatz 44717089;Parkplatz;Trier;Deutschland;6.6353859;49.7642872;OpenStreetMap;;"fee: yes; wheelchair: no"
Parkplatz 46725942;Parkplatz;Trier;Deutschland;6.6393057;49.7455252;OpenStreetMap;;
Parkplatz 46995170;Parkplatz;Trier;Deutschland;6.6331389;49.7443152;OpenStreetMap;;"fee: no; wheelchair: yes"
Parkplatz 47323889;Parkplatz;Trier;Deutschland;6.6293639;49.7503157;OpenStreetMap;;
Parkplatz 47359025;Parkplatz;Trier;Deutschland;6.6281728;49.7493526;OpenStreetMap;;capacity: 8
Parkplatz 47360063;Parkplatz;Trier;Deutschland;6.6299431;49.7485925;OpenStreetMap;;
Parkplatz 47361411;Parkplatz;Trier;Deutschland;6.6305379;49.7496376;OpenStreetMap;;
Parkplatz 47909330;Parkplatz;Trier;Deutschland;6.6480235;49.7698771;OpenStreetMap;;fee: no
Parkplatz 47909438;Parkplatz;Trier;Deutschland;6.6613296;49.7712672;OpenStreetMap;;fee: no
Parkplatz 48455565;Parkplatz;Trier;Deutschland;6.6224772;49.7500656;OpenStreetMap;;"fee: no; wheelchair: yes"
Parkplatz 49333294;Parkplatz;Trier;Deutschland;6.6679146;49.7550636;OpenStreetMap;;fee: no
Parkplatz 49366291;Parkplatz;Trier;Deutschland;6.6704229;49.7563531;OpenStreetMap;;"fee: yes; wheelchair: yes"
Parkplatz 50290785;Parkplatz;Trier;Deutschland;6.620769;49.7531238;OpenStreetMap;;
Parkplatz 50436055;Parkplatz;Trier;Deutschland;6.649629;49.7637837;OpenStreetMap;;fee: no
Parkplatz 51892680;Parkplatz;Trier;Deutschland;6.6248885;49.7533456;OpenStreetMap;;
Parkplatz 51985481;Parkplatz;Trier;Deutschland;6.6237336;49.7633325;OpenStreetMap;;
Parkplatz 65157746;Parkplatz;Trier;Deutschland;6.6751161;49.7483642;OpenStreetMap;;"fee: no; wheelchair: yes"
Parkplatz 65210223;Parkplatz;Trier;Deutschland;6.6760475;49.7498756;OpenStreetMap;;
Amphitheater;Parkplatz;Trier;Deutschland;6.6487864;49.7469885;OpenStreetMap;Stadt Trier;fee: no
Parkplatz 73032640;Parkplatz;Trier;Deutschland;6.624585;49.7565916;OpenStreetMap;;fee: no
Parkplatz 73032664;Parkplatz;Trier;Deutschland;6.6251081;49.7562721;OpenStreetMap;;
P1;Parkplatz;Trier;Deutschland;6.6231404;49.7675285;OpenStreetMap;;"fee: yes; wheelchair: yes"
Parkplatz 85825984;Parkplatz;Trier;Deutschland;6.632747;49.7523777;OpenStreetMap;;"fee: yes; wheelchair: limited"
Parkplatz 88362560;Parkplatz;Trier;Deutschland;6.6527042;49.7551493;OpenStreetMap;;
Parkplatz 88496982;Parkplatz;Trier;Deutschland;6.6342323;49.7540387;OpenStreetMap;;"fee: yes; wheelchair: yes"
Parkhaus Hauptmarkt;Parkplatz;Trier;Deutschland;6.6391085;49.7582487;OpenStreetMap;SWT Parken GmbH;"capacity: 344; fee: yes; wheelchair: yes"
Galeria Kaufhof;Parkplatz;Trier;Deutschland;6.6414653;49.7592417;OpenStreetMap;;"capacity: 450; fee: yes; wheelchair: limited"
Krankenhaus der Barmherzigen Brüder Trier;Parkplatz;Trier;Deutschland;6.6407826;49.7616613;OpenStreetMap;;"fee: yes; wheelchair: limited"
Parkplatz 97075612;Parkplatz;Trier;Deutschland;6.6618795;49.7719002;OpenStreetMap;;
Weisshauswald;Parkplatz;Trier;Deutschland;6.6333772;49.7703474;OpenStreetMap;;"fee: no; wheelchair: limited"
Parkplatz 106292618;Parkplatz;Trier;Deutschland;6.6363582;49.7477415;OpenStreetMap;;
Parkplatz 106560793;Parkplatz;Trier;Deutschland;6.6288748;49.7515144;OpenStreetMap;;fee: no
Parkplatz 106995432;Parkplatz;Trier;Deutschland;6.6211537;49.7398379;OpenStreetMap;;fee: no
Parkplatz 106995438;Parkplatz;Trier;Deutschland;6.6219168;49.7392667;OpenStreetMap;;"fee: no; wheelchair: no"
Parkplatz 111401188;Parkplatz;Trier;Deutschland;6.6217289;49.7748802;OpenStreetMap;;"capacity: 20; fee: no"
Parkplatz 111609816;Parkplatz;Trier;Deutschland;6.6703493;49.7686281;OpenStreetMap;;
Sieh um Dich;Parkplatz;Trier;Deutschland;6.6442133;49.7575108;OpenStreetMap;;"capacity: 27; fee: yes; wheelchair: yes"
Parkplatz 112595177;Parkplatz;Trier;Deutschland;6.6441378;49.7580129;OpenStreetMap;Stadt Trier;"fee: no; wheelchair: yes"
Parkplatz 112793386;Parkplatz;Trier;Deutschland;6.6359238;49.750997;OpenStreetMap;;fee: yes
Parkplatz 113363088;Parkplatz;Trier;Deutschland;6.6361826;49.7501556;OpenStreetMap;;"capacity: 40; fee: yes"
Parkplatz 113502558;Parkplatz;Trier;Deutschland;6.6727857;49.7783528;OpenStreetMap;;
Parkplatz 124425501;Parkplatz;Trier;Deutschland;6.6551931;49.7651716;OpenStreetMap;;fee: no
Parkplatz 124425522;Parkplatz;Trier;Deutschland;6.6556806;49.7656407;OpenStreetMap;;fee: no
Parkplatz 124433279;Parkplatz;Trier;Deutschland;6.6580797;49.7704112;OpenStreetMap;;
Parkplatz 124433286;Parkplatz;Trier;Deutschland;6.6591249;49.7707054;OpenStreetMap;;fee: no
Parkplatz 124433811;Parkplatz;Trier;Deutschland;6.6470424;49.7666139;OpenStreetMap;;"capacity: 130; fee: yes; wheelchair: limited"
Parkplatz 124791657;Parkplatz;Trier;Deutschland;6.6484835;49.7395689;OpenStreetMap;;fee: no
Parkplatz 124797893;Parkplatz;Trier;Deutschland;6.6454091;49.7619264;OpenStreetMap;;fee: yes
Aldi;Parkplatz;Trier;Deutschland;6.6374496;49.7536522;OpenStreetMap;;wheelchair: no
Parkplatz 126684930;Parkplatz;Trier;Deutschland;6.6383714;49.7544836;OpenStreetMap;;wheelchair: yes
Parkhaus Am Bahnhof;Parkplatz;Trier;Deutschland;6.6540751;49.7597315;OpenStreetMap;Erhard Simon;"capacity: 106; fee: yes"
Parkplatz 127054311;Parkplatz;Trier;Deutschland;6.6336678;49.7566083;OpenStreetMap;;
Parkplatz 127245252;Parkplatz;Trier;Deutschland;6.6327046;49.7586862;OpenStreetMap;;"fee: yes; wheelchair: yes"
Parkplatz 127567088;Parkplatz;Trier;Deutschland;6.6373913;49.7582546;OpenStreetMap;;wheelchair: yes
Parkplatz 128084055;Parkplatz;Trier;Deutschland;6.6284468;49.7525694;OpenStreetMap;;fee: yes
Parkplatz 128215885;Parkplatz;Trier;Deutschland;6.6297707;49.7560556;OpenStreetMap;;
Parkplatz 130365182;Parkplatz;Trier;Deutschland;6.6339967;49.7499163;OpenStreetMap;;
Parkplatz 130431329;Parkplatz;Trier;Deutschland;6.6345918;49.7497444;OpenStreetMap;;"fee: yes; wheelchair: yes"
Weißhaus;Parkplatz;Trier;Deutschland;6.6343075;49.7694135;OpenStreetMap;;
Parkplatz 132723383;Parkplatz;Trier;Deutschland;6.6286937;49.7716169;OpenStreetMap;;fee: no
Parkplatz 134021577;Parkplatz;Trier;Deutschland;6.6265212;49.7667101;OpenStreetMap;;
Parkplatz 134992565;Parkplatz;Trier;Deutschland;6.6247288;49.7517167;OpenStreetMap;;"fee: no; wheelchair: limited"
Parkplatz 136511431;Parkplatz;Trier;Deutschland;6.6508469;49.7384286;OpenStreetMap;;
Parkplatz 136511434;Parkplatz;Trier;Deutschland;6.6503451;49.7387701;OpenStreetMap;Deutsche Richterakademie;
Parkplatz 139159120;Parkplatz;Trier;Deutschland;6.66296;49.7425209;OpenStreetMap;;fee: no
Parkplatz 139159733;Parkplatz;Trier;Deutschland;6.6617931;49.7426952;OpenStreetMap;;fee: no
Parkplatz 142675079;Parkplatz;Trier;Deutschland;6.6212568;49.7231027;OpenStreetMap;;"fee: no; wheelchair: yes"
Parkplatz 145680899;Parkplatz;Trier;Deutschland;6.619547;49.7495221;OpenStreetMap;;fee: no
Parkplatz 146259708;Parkplatz;Trier;Deutschland;6.652281;49.7545832;OpenStreetMap;;
Parkplatz 148187845;Parkplatz;Trier;Deutschland;6.6573509;49.7586879;OpenStreetMap;;
Parkplatz 148187848;Parkplatz;Trier;Deutschland;6.657208;49.758955;OpenStreetMap;;
Parkplatz 148187879;Parkplatz;Trier;Deutschland;6.6580153;49.7590333;OpenStreetMap;;
Parkplatz 149115995;Parkplatz;Trier;Deutschland;6.6586241;49.7723989;OpenStreetMap;;fee: no
Parkplatz 149428429;Parkplatz;Trier;Deutschland;6.6409069;49.7635875;OpenStreetMap;Barmherzige Brüder Trier gGmbH;"fee: yes; wheelchair: limited"
Parkplatz 149630034;Parkplatz;Trier;Deutschland;6.6399443;49.7707425;OpenStreetMap;;
Parkplatz 149781527;Parkplatz;Trier;Deutschland;6.6277722;49.7308443;OpenStreetMap;;capacity: 14
Parkplatz 149781532;Parkplatz;Trier;Deutschland;6.6276682;49.7245666;OpenStreetMap;;
Parkplatz 149931870;Parkplatz;Trier;Deutschland;6.6704031;49.7788866;OpenStreetMap;;
Parkplatz 149998107;Parkplatz;Trier;Deutschland;6.652466;49.7754948;OpenStreetMap;;fee: no
P4;Parkplatz;Trier;Deutschland;6.6290267;49.769075;OpenStreetMap;;wheelchair: yes
Parkplatz 150679791;Parkplatz;Trier;Deutschland;6.6789265;49.775485;OpenStreetMap;;fee: no
Parkplatz 151108737;Parkplatz;Trier;Deutschland;6.6704728;49.7379788;OpenStreetMap;;fee: no
Parkplatz 152359623;Parkplatz;Trier;Deutschland;6.6359248;49.7601238;OpenStreetMap;;"fee: yes; wheelchair: yes"
Parkplatz 152367468;Parkplatz;Trier;Deutschland;6.6345174;49.7632967;OpenStreetMap;;fee: yes
Parkplatz 153234279;Parkplatz;Trier;Deutschland;6.6566433;49.7424396;OpenStreetMap;;capacity: 2
Parkplatz 153680274;Parkplatz;Trier;Deutschland;6.669832;49.7564402;OpenStreetMap;;fee: no
Parkplatz 153817289;Parkplatz;Trier;Deutschland;6.6758488;49.754818;OpenStreetMap;;
Parkplatz 153817290;Parkplatz;Trier;Deutschland;6.6757298;49.7546989;OpenStreetMap;;
Parkplatz 154574870;Parkplatz;Trier;Deutschland;6.6273639;49.7653299;OpenStreetMap;;
Parkplatz 155424434;Parkplatz;Trier;Deutschland;6.6327105;49.7412854;OpenStreetMap;;"fee: yes; wheelchair: yes"
Parkplatz 156857151;Parkplatz;Trier;Deutschland;6.6342361;49.7573352;OpenStreetMap;;wheelchair: yes
Parkplatz 156857155;Parkplatz;Trier;Deutschland;6.6330944;49.7593598;OpenStreetMap;;
Parkplatz 157093894;Parkplatz;Trier;Deutschland;6.6340145;49.7411998;OpenStreetMap;;wheelchair: yes
Parkplatz 157408101;Parkplatz;Trier;Deutschland;6.634408;49.7426013;OpenStreetMap;Park & Control;"fee: no; wheelchair: yes"
Parkplatz 157522672;Parkplatz;Trier;Deutschland;6.6327156;49.7611596;OpenStreetMap;;fee: yes
Parkplatz 158189550;Parkplatz;Trier;Deutschland;6.6202145;49.7554354;OpenStreetMap;;
Parkplatz 158189556;Parkplatz;Trier;Deutschland;6.6198407;49.7556286;OpenStreetMap;;
Parkplatz 158225652;Parkplatz;Trier;Deutschland;6.6579579;49.7392049;OpenStreetMap;;
Parkplatz 158236988;Parkplatz;Trier;Deutschland;6.666852;49.7230835;OpenStreetMap;;
City Parkhaus;Parkplatz;Trier;Deutschland;6.636576;49.7566082;OpenStreetMap;Stadtwerke Trier;"capacity: 950; fee: yes; wheelchair: yes"
Parkplatz 160093586;Parkplatz;Trier;Deutschland;6.640704;49.7414191;OpenStreetMap;;fee: yes
Parkplatz 160093639;Parkplatz;Trier;Deutschland;6.6415722;49.7414296;OpenStreetMap;;fee: no
Parkplatz 160272919;Parkplatz;Trier;Deutschland;6.6505839;49.728977;OpenStreetMap;;fee: no
Parkplatz 160934064;Parkplatz;Trier;Deutschland;6.6312261;49.7286508;OpenStreetMap;;fee: no
Parkplatz 161538071;Parkplatz;Trier;Deutschland;6.6356323;49.7305026;OpenStreetMap;;
Parkplatz 161538072;Parkplatz;Trier;Deutschland;6.6363175;49.7310315;OpenStreetMap;;
Parkplatz 161538785;Parkplatz;Trier;Deutschland;6.6402377;49.730315;OpenStreetMap;;
Parkplatz 166627372;Parkplatz;Trier;Deutschland;6.6527655;49.7578818;OpenStreetMap;;"fee: yes; wheelchair: limited"
Parkplatz 166627375;Parkplatz;Trier;Deutschland;6.6511378;49.7563115;OpenStreetMap;;fee: yes
Parkplatz 166627377;Parkplatz;Trier;Deutschland;6.6517134;49.7576981;OpenStreetMap;;"fee: Mo-Sa 08:30-20:00; wheelchair: yes"
Parkplatz 166627378;Parkplatz;Trier;Deutschland;6.6517907;49.7586266;OpenStreetMap;;fee: yes
Parkplatz 166627380;Parkplatz;Trier;Deutschland;6.6514647;49.7568876;OpenStreetMap;;"fee: yes; wheelchair: yes"
Parkplatz 171465045;Parkplatz;Trier;Deutschland;6.6688823;49.7645735;OpenStreetMap;;
Parkplatz 171465046;Parkplatz;Trier;Deutschland;6.6694002;49.7647957;OpenStreetMap;;
Parkplatz 171465047;Parkplatz;Trier;Deutschland;6.6679918;49.7649829;OpenStreetMap;;
Parkplatz 175299579;Parkplatz;Trier;Deutschland;6.6435214;49.7510924;OpenStreetMap;;
Parkplatz 180258409;Parkplatz;Trier;Deutschland;6.6535287;49.7261346;OpenStreetMap;;
Parkplatz 180269339;Parkplatz;Trier;Deutschland;6.6491074;49.7256218;OpenStreetMap;;
Parkplatz 181513492;Parkplatz;Trier;Deutschland;6.665396;49.754613;OpenStreetMap;;
Parkplatz 183766021;Parkplatz;Trier;Deutschland;6.6633956;49.7401365;OpenStreetMap;;capacity: 3
Parkplatz 192081613;Parkplatz;Trier;Deutschland;6.6667047;49.7554506;OpenStreetMap;;fee: no
Parkplatz 192625496;Parkplatz;Trier;Deutschland;6.6610945;49.7708139;OpenStreetMap;;
Parkplatz 192637081;Parkplatz;Trier;Deutschland;6.667096;49.7735203;OpenStreetMap;;fee: no
Parkplatz 192637085;Parkplatz;Trier;Deutschland;6.668395;49.774084;OpenStreetMap;;
Parkplatz 192637090;Parkplatz;Trier;Deutschland;6.6671181;49.7741037;OpenStreetMap;;
Parkplatz 196793388;Parkplatz;Trier;Deutschland;6.6275211;49.7673713;OpenStreetMap;;fee: no
Parkplatz 199802380;Parkplatz;Trier;Deutschland;6.6501681;49.7707583;OpenStreetMap;;
Parkplatz 199802381;Parkplatz;Trier;Deutschland;6.6480244;49.7703094;OpenStreetMap;;capacity: 14
Parkplatz 201909177;Parkplatz;Trier;Deutschland;6.6283491;49.7462469;OpenStreetMap;;
Parkplatz 205357288;Parkplatz;Trier;Deutschland;6.6655781;49.771117;OpenStreetMap;;
Parkplatz 209145426;Parkplatz;Trier;Deutschland;6.6683468;49.7676704;OpenStreetMap;;
Parkplatz 218701607;Parkplatz;Trier;Deutschland;6.6415713;49.7620809;OpenStreetMap;Barmherzige Brüder Trier gGmbH;
Parkplatz 222136652;Parkplatz;Trier;Deutschland;6.656085;49.7666231;OpenStreetMap;;fee: no
Parkplatz 222138196;Parkplatz;Trier;Deutschland;6.6419179;49.7681515;OpenStreetMap;;fee: no
Parkplatz 222143913;Parkplatz;Trier;Deutschland;6.6569979;49.7655257;OpenStreetMap;;
Parkplatz 222147589;Parkplatz;Trier;Deutschland;6.6552609;49.7659333;OpenStreetMap;;
Ostallee;Park+Ride;Trier;Deutschland;6.6502333;49.7556223;OpenStreetMap;SWT Parken GmbH;"capacity: 860; fee: yes; wheelchair: yes"
Parkplatz 227410319;Parkplatz;Trier;Deutschland;6.6800507;49.7549633;OpenStreetMap;;
Parkplatz 227443669;Parkplatz;Trier;Deutschland;6.679245;49.7503537;OpenStreetMap;;
Parkplatz 235499205;Parkplatz;Trier;Deutschland;6.6397948;49.7676906;OpenStreetMap;;fee: no
Parkplatz 241075627;Parkplatz;Trier;Deutschland;6.6625599;49.7705779;OpenStreetMap;;
Parkplatz 245246362;Parkplatz;Trier;Deutschland;6.6581344;49.7630381;OpenStreetMap;Auto-Teile-Unger Handels GmbH & Co. KG;fee: no
Parkplatz 245246366;Parkplatz;Trier;Deutschland;6.6573924;49.7629122;OpenStreetMap;Netto Marken-Discount AG & Co. KG;fee: no
Parkplatz 246017557;Parkplatz;Trier;Deutschland;6.6284504;49.7235321;OpenStreetMap;;fee: no
Parkplatz 248239259;Parkplatz;Trier;Deutschland;6.6241598;49.7531973;OpenStreetMap;;"fee: no; wheelchair: yes"
Berufsfeuerwehr Trier;Parkplatz;Trier;Deutschland;6.6282796;49.7465382;OpenStreetMap;Stadt Trier;"capacity: 16; fee: no"
Parkplatz 253431982;Parkplatz;Trier;Deutschland;6.6311126;49.748736;OpenStreetMap;;fee: no
Parkplatz 263843971;Parkplatz;Trier;Deutschland;6.6300945;49.7534646;OpenStreetMap;;
Parkplatz 263844512;Parkplatz;Trier;Deutschland;6.639819;49.761516;OpenStreetMap;;
Parkplatz 282487945;Parkplatz;Trier;Deutschland;6.6273975;49.767781;OpenStreetMap;;wheelchair: yes
Parkplatz 282487946;Parkplatz;Trier;Deutschland;6.6283658;49.7676027;OpenStreetMap;;wheelchair: yes
Parkplatz 286082224;Parkplatz;Trier;Deutschland;6.6423318;49.7627931;OpenStreetMap;;
Parkplatz 295416400;Parkplatz;Trier;Deutschland;6.6388013;49.7296262;OpenStreetMap;;"capacity: 8; fee: no"
Parkplatz 297071429;Parkplatz;Trier;Deutschland;6.6720919;49.7559325;OpenStreetMap;;fee: yes
Parkplatz 297071430;Parkplatz;Trier;Deutschland;6.6695038;49.7557199;OpenStreetMap;;
TRIWO Privatparkplatz;Parkplatz;Trier;Deutschland;6.6520621;49.7556784;OpenStreetMap;;"capacity: 110; fee: yes"
Parkplatz 316188164;Parkplatz;Trier;Deutschland;6.628611;49.7453019;OpenStreetMap;Stadt Trier;
Parkplatz 317175773;Parkplatz;Trier;Deutschland;6.6465514;49.7402922;OpenStreetMap;;fee: no
Parkplatz 321138487;Parkplatz;Trier;Deutschland;6.6239842;49.7463023;OpenStreetMap;;"fee: no; wheelchair: no"
Parkplatz 321138489;Parkplatz;Trier;Deutschland;6.6236344;49.7460873;OpenStreetMap;;"fee: no; wheelchair: yes"
Parkplatz 323347568;Parkplatz;Trier;Deutschland;6.6359354;49.7649831;OpenStreetMap;;
Parkplatz 323347571;Parkplatz;Trier;Deutschland;6.6371581;49.7661982;OpenStreetMap;;fee: yes
Parkplatz 324029021;Parkplatz;Trier;Deutschland;6.6352426;49.7635166;OpenStreetMap;;
Friedhofsparkplatz;Parkplatz;Trier;Deutschland;6.6244094;49.7592512;OpenStreetMap;Stadt Trier;"capacity: 4; fee: no"
Parkplatz 324215391;Parkplatz;Trier;Deutschland;6.6247333;49.7587502;OpenStreetMap;Stadt Trier;"capacity: 28; fee: no"
Parkplatz 324330467;Parkplatz;Trier;Deutschland;6.6546288;49.7611083;OpenStreetMap;;fee: no
Parkplatz 325796108;Parkplatz;Trier;Deutschland;6.6586966;49.7695576;OpenStreetMap;;
Parkplatz 325796113;Parkplatz;Trier;Deutschland;6.6600877;49.7691808;OpenStreetMap;;fee: no
Parkplatz 325796114;Parkplatz;Trier;Deutschland;6.659443;49.7688745;OpenStreetMap;;fee: no
Parkplatz 325796121;Parkplatz;Trier;Deutschland;6.6579912;49.7684339;OpenStreetMap;;fee: no
Parkplatz 325925162;Parkplatz;Trier;Deutschland;6.6442374;49.750573;OpenStreetMap;;"capacity: 15; fee: no; wheelchair: yes"
Parkplatz 325982512;Parkplatz;Trier;Deutschland;6.64628;49.7604681;OpenStreetMap;;
Parkplatz 325984687;Parkplatz;Trier;Deutschland;6.6522896;49.7581727;OpenStreetMap;;"capacity: 34; fee: Mo-Sa 08:30-20:00; wheelchair: yes"
Parkplatz 326332276;Parkplatz;Trier;Deutschland;6.6442545;49.7510774;OpenStreetMap;;
Parkplatz 326982671;Parkplatz;Trier;Deutschland;6.6290366;49.7470701;OpenStreetMap;;
Parkplatz 327856870;Parkplatz;Trier;Deutschland;6.6442876;49.7542359;OpenStreetMap;;
Parkplatz 327856876;Parkplatz;Trier;Deutschland;6.6435863;49.7541333;OpenStreetMap;;wheelchair: limited
Parkplatz 328039851;Parkplatz;Trier;Deutschland;6.6392932;49.7493373;OpenStreetMap;;fee: yes
Parkplatz 328409622;Parkplatz;Trier;Deutschland;6.6453497;49.7591968;OpenStreetMap;;"capacity: 3; fee: yes"
Parkplatz 328409623;Parkplatz;Trier;Deutschland;6.6453608;49.7591322;OpenStreetMap;;"capacity: 6; fee: yes"
Parkplatz 328409624;Parkplatz;Trier;Deutschland;6.645772;49.7589709;OpenStreetMap;;"capacity: 4; fee: yes"
Parkplatz 328412881;Parkplatz;Trier;Deutschland;6.6484366;49.7533202;OpenStreetMap;;capacity: 3
Parkplatz 328412883;Parkplatz;Trier;Deutschland;6.6480321;49.7534186;OpenStreetMap;;capacity: 3
Parkplatz 328412885;Parkplatz;Trier;Deutschland;6.647672;49.7535062;OpenStreetMap;;capacity: 2
Parkplatz 328412895;Parkplatz;Trier;Deutschland;6.6493687;49.7531707;OpenStreetMap;;"capacity: 5; fee: no"
Parkplatz 328509972;Parkplatz;Trier;Deutschland;6.6474775;49.7534282;OpenStreetMap;;
Parkplatz 328536765;Parkplatz;Trier;Deutschland;6.6398626;49.7591209;OpenStreetMap;;capacity: 8
Parkplatz 328863841;Parkplatz;Trier;Deutschland;6.6507739;49.7585236;OpenStreetMap;;
Parkplatz 329143549;Parkplatz;Trier;Deutschland;6.6482029;49.7532875;OpenStreetMap;;capacity: 8
Parkplatz 329468757;Parkplatz;Trier;Deutschland;6.651461;49.7590498;OpenStreetMap;;fee: no
Parkplatz 329527780;Parkplatz;Trier;Deutschland;6.6552317;49.7558295;OpenStreetMap;;
Parkplatz 329546369;Parkplatz;Trier;Deutschland;6.6705341;49.7617544;OpenStreetMap;;capacity: 14
Parkplatz 329546371;Parkplatz;Trier;Deutschland;6.6714991;49.7613446;OpenStreetMap;;capacity: 8
Parkplatz 329546372;Parkplatz;Trier;Deutschland;6.6722494;49.760959;OpenStreetMap;;capacity: 4
Parkplatz 329546374;Parkplatz;Trier;Deutschland;6.672855;49.7605689;OpenStreetMap;;capacity: 7
Parkplatz 329546375;Parkplatz;Trier;Deutschland;6.6733613;49.76025;OpenStreetMap;;capacity: 6
Parkplatz 329559525;Parkplatz;Trier;Deutschland;6.6606642;49.7603558;OpenStreetMap;;capacity: 3
Parkplatz 329656170;Parkplatz;Trier;Deutschland;6.642714;49.7544863;OpenStreetMap;;"capacity: 2; fee: yes; wheelchair: yes"
Parkplatz 329750957;Parkplatz;Trier;Deutschland;6.6768184;49.7705919;OpenStreetMap;;
Parkplatz 330038429;Parkplatz;Trier;Deutschland;6.6771891;49.759392;OpenStreetMap;;capacity: 4
Parkplatz 330038430;Parkplatz;Trier;Deutschland;6.6768801;49.7594317;OpenStreetMap;;capacity: 2
Parkplatz 330038431;Parkplatz;Trier;Deutschland;6.6777095;49.7593293;OpenStreetMap;;
Parkplatz 330403361;Parkplatz;Trier;Deutschland;6.6364428;49.7589885;OpenStreetMap;;
Parkplatz 330831644;Parkplatz;Trier;Deutschland;6.6490895;49.753055;OpenStreetMap;;"capacity: 7; fee: yes"
Parkplatz 333294925;Parkplatz;Trier;Deutschland;6.6294826;49.7407977;OpenStreetMap;;capacity: 6
Parkplatz 333294926;Parkplatz;Trier;Deutschland;6.6294482;49.7400373;OpenStreetMap;;capacity: 6
Parkplatz 333294927;Parkplatz;Trier;Deutschland;6.6294612;49.739688;OpenStreetMap;;capacity: 6
Parkplatz 333294928;Parkplatz;Trier;Deutschland;6.6294473;49.7404183;OpenStreetMap;;capacity: 6
Parkplatz 335757374;Parkplatz;Trier;Deutschland;6.6208237;49.7668411;OpenStreetMap;;fee: yes
Parkplatz 336108458;Parkplatz;Trier;Deutschland;6.62113;49.7538866;OpenStreetMap;;
Parkplatz 337055799;Parkplatz;Trier;Deutschland;6.6202215;49.7558865;OpenStreetMap;;
Parkplatz 338796505;Parkplatz;Trier;Deutschland;6.6382765;49.7619813;OpenStreetMap;;capacity: 8
Parkplatz 343375590;Parkplatz;Trier;Deutschland;6.6605651;49.7687523;OpenStreetMap;;
Parkplatz 344358429;Parkplatz;Trier;Deutschland;6.6593545;49.7337799;OpenStreetMap;;"fee: no; wheelchair: yes"
Parkplatz 347897632;Parkplatz;Trier;Deutschland;6.6700735;49.7711826;OpenStreetMap;;fee: no
Parkplatz 352848736;Parkplatz;Trier;Deutschland;6.6247024;49.7663913;OpenStreetMap;;fee: no
Parkplatz 363583226;Parkplatz;Trier;Deutschland;6.6324431;49.7528693;OpenStreetMap;;fee: yes
Parkplatz 364248759;Parkplatz;Trier;Deutschland;6.6469967;49.7633872;OpenStreetMap;;fee: no
Parkplatz 365200910;Parkplatz;Trier;Deutschland;6.6492386;49.7642905;OpenStreetMap;;
Parkplatz 379733033;Parkplatz;Trier;Deutschland;6.6463756;49.7625324;OpenStreetMap;;fee: no
Parkplatz 380422313;Parkplatz;Trier;Deutschland;6.6405769;49.751402;OpenStreetMap;;
Parkplatz 386314606;Parkplatz;Trier;Deutschland;6.6614249;49.7703553;OpenStreetMap;;
Parkplatz 386314607;Parkplatz;Trier;Deutschland;6.6620097;49.7706359;OpenStreetMap;;
Parkplatz Spitzmühle;Parkplatz;Trier;Deutschland;6.6440376;49.7462903;OpenStreetMap;;fee: yes
Parkplatz 388719250;Parkplatz;Trier;Deutschland;6.6197126;49.7434852;OpenStreetMap;;
Parkplatz 389892698;Parkplatz;Trier;Deutschland;6.6587778;49.7646208;OpenStreetMap;;
Parkplatz 390111816;Parkplatz;Trier;Deutschland;6.6569361;49.7300452;OpenStreetMap;;fee: no
Parkplatz 396347960;Parkplatz;Trier;Deutschland;6.6288268;49.742219;OpenStreetMap;;
Parkplatz 399777575;Parkplatz;Trier;Deutschland;6.6337584;49.7501285;OpenStreetMap;;"capacity: 6; fee: no"
Parkplatz 399777577;Parkplatz;Trier;Deutschland;6.6336968;49.7500265;OpenStreetMap;;"capacity: 13; fee: no"
Parkplatz 401011558;Parkplatz;Trier;Deutschland;6.6392512;49.759859;OpenStreetMap;;
Parkplatz 401011559;Parkplatz;Trier;Deutschland;6.6400575;49.7599473;OpenStreetMap;;
Parkplatz 401146584;Parkplatz;Trier;Deutschland;6.6307961;49.7541274;OpenStreetMap;;capacity: 3
Parkplatz 401620601;Parkplatz;Trier;Deutschland;6.660373;49.7704815;OpenStreetMap;;capacity: 13
Parkplatz 401623325;Parkplatz;Trier;Deutschland;6.6649924;49.7719161;OpenStreetMap;;fee: no
Parkplatz 403827239;Parkplatz;Trier;Deutschland;6.6221673;49.7510268;OpenStreetMap;;wheelchair: yes
Parkplatz 404645338;Parkplatz;Trier;Deutschland;6.6783835;49.7501314;OpenStreetMap;;fee: no
